[
  {
    "id": "BikePoints_1",
    "commonName": "River Street , Clerkenwell",
    "lat": 51.529163,
    "lon": -0.10997
  },
  {
    "id": "BikePoints_2",
    "commonName": "Phillimore Gardens, Kensington",
    "lat": 51.499606,
    "lon": -0.197574
  },
  {
    "id": "BikePoints_3",
    "commonName": "Christopher Street, Liverpool Street",
    "lat": 51.521283,
    "lon": -0.084605
  },
  {
    "id": "BikePoints_4",
    "commonName": "St. Chad's Street, King's Cross",
    "lat": 51.530059,
    "lon": -0.120973
  },
  {
    "id": "BikePoints_5",
    "commonName": "Sedding Street, Sloane Square",
    "lat": 51.49313,
    "lon": -0.156876
  },
  {
    "id": "BikePoints_6",
    "commonName": "Broadcasting House, Marylebone",
    "lat": 51.518117,
    "lon": -0.144228
  },
  {
    "id": "BikePoints_7",
    "commonName": "Charlbert Street, St. John's Wood",
    "lat": 51.5343,
    "lon": -0.168074
  },
  {
    "id": "BikePoints_8",
    "commonName": "Maida Vale, Maida Vale",
    "lat": 51.529857,
    "lon": -0.183486
  },
  {
    "id": "BikePoints_9",
    "commonName": "New Globe Walk, Bankside",
    "lat": 51.507385,
    "lon": -0.09644
  },
  {
    "id": "BikePoints_10",
    "commonName": "Park Street, Bankside",
    "lat": 51.505974,
    "lon": -0.092754
  },
  {
    "id": "BikePoints_11",
    "commonName": "Brunswick Square, Bloomsbury",
    "lat": 51.523951,
    "lon": -0.122502
  },
  {
    "id": "BikePoints_12",
    "commonName": "Malet Street, Bloomsbury",
    "lat": 51.52168,
    "lon": -0.130431
  },
  {
    "id": "BikePoints_13",
    "commonName": "Scala Street, Fitzrovia",
    "lat": 51.519914,
    "lon": -0.136039
  },
  {
    "id": "BikePoints_14",
    "commonName": "Belgrove Street , King's Cross",
    "lat": 51.529943,
    "lon": -0.123616
  },
  {
    "id": "BikePoints_15",
    "commonName": "Great Russell Street, Bloomsbury",
    "lat": 51.517727,
    "lon": -0.127854
  },
  {
    "id": "BikePoints_16",
    "commonName": "Cartwright Gardens , Bloomsbury",
    "lat": 51.526357,
    "lon": -0.125979
  },
  {
    "id": "BikePoints_17",
    "commonName": "Hatton Wall, Holborn",
    "lat": 51.521661,
    "lon": -0.109006
  },
  {
    "id": "BikePoints_18",
    "commonName": "Drury Lane, Covent Garden",
    "lat": 51.51477,
    "lon": -0.122219
  },
  {
    "id": "BikePoints_19",
    "commonName": "Taviton Street, Bloomsbury",
    "lat": 51.52505,
    "lon": -0.131161
  },
  {
    "id": "BikePoints_20",
    "commonName": "Drummond Street , Euston",
    "lat": 51.527326,
    "lon": -0.136052
  },
  {
    "id": "BikePoints_21",
    "commonName": "Hampstead Road (Cartmel), Euston",
    "lat": 51.530078,
    "lon": -0.138846
  },
  {
    "id": "BikePoints_22",
    "commonName": "Northington Street , Holborn",
    "lat": 51.522264,
    "lon": -0.114079
  },
  {
    "id": "BikePoints_23",
    "commonName": "Red Lion Square, Holborn",
    "lat": 51.519435,
    "lon": -0.119123
  },
  {
    "id": "BikePoints_24",
    "commonName": "British Museum, Bloomsbury",
    "lat": 51.51908,
    "lon": -0.124678
  },
  {
    "id": "BikePoints_25",
    "commonName": "Doric Way , Somers Town",
    "lat": 51.528833,
    "lon": -0.13225
  },
  {
    "id": "BikePoints_26",
    "commonName": "Ampton Street , Clerkenwell",
    "lat": 51.52728,
    "lon": -0.118295
  },
  {
    "id": "BikePoints_27",
    "commonName": "Bouverie Street, Temple",
    "lat": 51.513821,
    "lon": -0.107927
  },
  {
    "id": "BikePoints_28",
    "commonName": "Bolsover Street, Fitzrovia",
    "lat": 51.523518,
    "lon": -0.143613
  },
  {
    "id": "BikePoints_29",
    "commonName": "Hereford Road, Bayswater",
    "lat": 51.513735,
    "lon": -0.193487
  },
  {
    "id": "BikePoints_30",
    "commonName": "Windsor Terrace, Hoxton",
    "lat": 51.529154,
    "lon": -0.093421
  },
  {
    "id": "BikePoints_31",
    "commonName": "Fanshaw Street, Hoxton",
    "lat": 51.529537,
    "lon": -0.083353
  },
  {
    "id": "BikePoints_32",
    "commonName": "Leonard Circus , Shoreditch",
    "lat": 51.524696,
    "lon": -0.084439
  },
  {
    "id": "BikePoints_33",
    "commonName": "Central House, Aldgate",
    "lat": 51.5156,
    "lon": -0.070056
  },
  {
    "id": "BikePoints_34",
    "commonName": "Pancras Road, King's Cross",
    "lat": 51.534123,
    "lon": -0.129386
  },
  {
    "id": "BikePoints_36",
    "commonName": "De Vere Gardens, Kensington",
    "lat": 51.501737,
    "lon": -0.18498
  },
  {
    "id": "BikePoints_37",
    "commonName": "Penywern Road, Earl's Court",
    "lat": 51.491593,
    "lon": -0.192369
  },
  {
    "id": "BikePoints_38",
    "commonName": "Abingdon Villas, Kensington",
    "lat": 51.497387,
    "lon": -0.197245
  },
  {
    "id": "BikePoints_39",
    "commonName": "Shoreditch High Street, Shoreditch",
    "lat": 51.526377,
    "lon": -0.07813
  },
  {
    "id": "BikePoints_40",
    "commonName": "Commercial Street, Shoreditch",
    "lat": 51.52127,
    "lon": -0.075578
  },
  {
    "id": "BikePoints_41",
    "commonName": "Pindar Street, Liverpool Street",
    "lat": 51.520955,
    "lon": -0.083493
  },
  {
    "id": "BikePoints_42",
    "commonName": "Wenlock Road , Hoxton",
    "lat": 51.530991,
    "lon": -0.093903
  },
  {
    "id": "BikePoints_43",
    "commonName": "Crawford Street, Marylebone",
    "lat": 51.52026,
    "lon": -0.157183
  },
  {
    "id": "BikePoints_44",
    "commonName": "Bruton Street, Mayfair",
    "lat": 51.510736,
    "lon": -0.144165
  },
  {
    "id": "BikePoints_45",
    "commonName": "Boston Place, Marylebone",
    "lat": 51.522511,
    "lon": -0.162298
  },
  {
    "id": "BikePoints_46",
    "commonName": "Nesham Street, Wapping",
    "lat": 51.507131,
    "lon": -0.06691
  },
  {
    "id": "BikePoints_47",
    "commonName": "Warwick Avenue Station, Maida Vale",
    "lat": 51.523344,
    "lon": -0.183846
  },
  {
    "id": "BikePoints_48",
    "commonName": "Godliman Street, St. Paul's",
    "lat": 51.512484,
    "lon": -0.099141
  },
  {
    "id": "BikePoints_49",
    "commonName": "Curzon Street, Mayfair",
    "lat": 51.507069,
    "lon": -0.145904
  },
  {
    "id": "BikePoints_50",
    "commonName": "East Road, Hoxton",
    "lat": 51.528673,
    "lon": -0.087459
  },
  {
    "id": "BikePoints_51",
    "commonName": "Finsbury Library , Finsbury",
    "lat": 51.526717,
    "lon": -0.104298
  },
  {
    "id": "BikePoints_52",
    "commonName": "Roscoe Street, St. Luke's",
    "lat": 51.522954,
    "lon": -0.094934
  },
  {
    "id": "BikePoints_53",
    "commonName": "Grafton Street, Mayfair",
    "lat": 51.509992,
    "lon": -0.143495
  },
  {
    "id": "BikePoints_54",
    "commonName": "Golden Lane, Barbican",
    "lat": 51.521747,
    "lon": -0.094475
  },
  {
    "id": "BikePoints_55",
    "commonName": "Finsbury Circus, Liverpool Street",
    "lat": 51.517075,
    "lon": -0.086685
  },
  {
    "id": "BikePoints_56",
    "commonName": "Paddington Street, Marylebone",
    "lat": 51.520583,
    "lon": -0.154701
  },
  {
    "id": "BikePoints_57",
    "commonName": "Guilford Street , Bloomsbury",
    "lat": 51.523346,
    "lon": -0.120202
  },
  {
    "id": "BikePoints_58",
    "commonName": "New Inn Yard, Shoreditch",
    "lat": 51.524526,
    "lon": -0.079248
  },
  {
    "id": "BikePoints_60",
    "commonName": "Lisson Grove, St. John's Wood",
    "lat": 51.526448,
    "lon": -0.17219
  },
  {
    "id": "BikePoints_61",
    "commonName": "Great Dover Street, The Borough",
    "lat": 51.497382,
    "lon": -0.089446
  },
  {
    "id": "BikePoints_62",
    "commonName": "Cotton Garden Estate, Kennington",
    "lat": 51.490757,
    "lon": -0.106323
  },
  {
    "id": "BikePoints_63",
    "commonName": "Murray Grove , Hoxton",
    "lat": 51.53089,
    "lon": -0.089782
  },
  {
    "id": "BikePoints_64",
    "commonName": "William IV Street, Strand",
    "lat": 51.509462,
    "lon": -0.124749
  },
  {
    "id": "BikePoints_65",
    "commonName": "Gower Place , Euston",
    "lat": 51.525227,
    "lon": -0.135188
  },
  {
    "id": "BikePoints_66",
    "commonName": "Holborn Circus, Holborn",
    "lat": 51.51795,
    "lon": -0.108657
  },
  {
    "id": "BikePoints_67",
    "commonName": "Hatton Garden, Holborn",
    "lat": 51.518825,
    "lon": -0.108028
  },
  {
    "id": "BikePoints_68",
    "commonName": "Theobald's Road , Holborn",
    "lat": 51.520596,
    "lon": -0.116688
  },
  {
    "id": "BikePoints_69",
    "commonName": "Euston Road, Euston",
    "lat": 51.526236,
    "lon": -0.134407
  },
  {
    "id": "BikePoints_70",
    "commonName": "Calshot Street , King's Cross",
    "lat": 51.53136,
    "lon": -0.117069
  },
  {
    "id": "BikePoints_71",
    "commonName": "Newgate Street , St. Paul's",
    "lat": 51.515418,
    "lon": -0.09885
  },
  {
    "id": "BikePoints_72",
    "commonName": "Farringdon Lane, Clerkenwell",
    "lat": 51.52352,
    "lon": -0.10834
  },
  {
    "id": "BikePoints_73",
    "commonName": "Old Street Station, St. Luke's",
    "lat": 51.525726,
    "lon": -0.088486
  },
  {
    "id": "BikePoints_74",
    "commonName": "Vauxhall Cross, Vauxhall",
    "lat": 51.485917,
    "lon": -0.124469
  },
  {
    "id": "BikePoints_75",
    "commonName": "Torrens Street, Angel",
    "lat": 51.532199,
    "lon": -0.10548
  },
  {
    "id": "BikePoints_76",
    "commonName": "Longford Street, The Regent's Park",
    "lat": 51.525595,
    "lon": -0.144083
  },
  {
    "id": "BikePoints_77",
    "commonName": "Russell Square Station, Bloomsbury",
    "lat": 51.523418,
    "lon": -0.124121
  },
  {
    "id": "BikePoints_78",
    "commonName": "Sadlers Sports Centre, Finsbury",
    "lat": 51.524868,
    "lon": -0.099489
  },
  {
    "id": "BikePoints_79",
    "commonName": "Arundel Street, Temple",
    "lat": 51.511726,
    "lon": -0.113855
  },
  {
    "id": "BikePoints_80",
    "commonName": "Webber Street , Southwark",
    "lat": 51.500693,
    "lon": -0.102091
  },
  {
    "id": "BikePoints_81",
    "commonName": "Great Titchfield Street, Fitzrovia",
    "lat": 51.520253,
    "lon": -0.141327
  },
  {
    "id": "BikePoints_82",
    "commonName": "Chancery Lane, Holborn",
    "lat": 51.514274,
    "lon": -0.111257
  },
  {
    "id": "BikePoints_83",
    "commonName": "Panton Street, West End",
    "lat": 51.509639,
    "lon": -0.13151
  },
  {
    "id": "BikePoints_84",
    "commonName": "Breams Buildings, Holborn",
    "lat": 51.515937,
    "lon": -0.111778
  },
  {
    "id": "BikePoints_85",
    "commonName": "Tanner Street, Bermondsey",
    "lat": 51.500647,
    "lon": -0.0786
  },
  {
    "id": "BikePoints_86",
    "commonName": "Sancroft Street, Vauxhall",
    "lat": 51.489479,
    "lon": -0.115156
  },
  {
    "id": "BikePoints_87",
    "commonName": "Devonshire Square, Liverpool Street",
    "lat": 51.516468,
    "lon": -0.079684
  },
  {
    "id": "BikePoints_88",
    "commonName": "Bayley Street , Bloomsbury",
    "lat": 51.518587,
    "lon": -0.132053
  },
  {
    "id": "BikePoints_89",
    "commonName": "Tavistock Place, Bloomsbury",
    "lat": 51.52625,
    "lon": -0.123509
  },
  {
    "id": "BikePoints_90",
    "commonName": "Harrington Square 1, Camden Town",
    "lat": 51.533019,
    "lon": -0.139174
  },
  {
    "id": "BikePoints_91",
    "commonName": "Walnut Tree Walk, Vauxhall",
    "lat": 51.493686,
    "lon": -0.111014
  },
  {
    "id": "BikePoints_92",
    "commonName": "Borough Road, Elephant & Castle",
    "lat": 51.498898,
    "lon": -0.10044
  },
  {
    "id": "BikePoints_93",
    "commonName": "Cloudesley Road, Angel",
    "lat": 51.534408,
    "lon": -0.109025
  },
  {
    "id": "BikePoints_94",
    "commonName": "Bricklayers Arms, Borough",
    "lat": 51.495061,
    "lon": -0.085814
  },
  {
    "id": "BikePoints_95",
    "commonName": "Aldersgate Street, Barbican",
    "lat": 51.520841,
    "lon": -0.09734
  },
  {
    "id": "BikePoints_96",
    "commonName": "Falkirk Street, Hoxton",
    "lat": 51.53095,
    "lon": -0.078505
  },
  {
    "id": "BikePoints_97",
    "commonName": "Gloucester Road (North), Kensington",
    "lat": 51.497924,
    "lon": -0.183834
  },
  {
    "id": "BikePoints_98",
    "commonName": "Hampstead Road, Euston",
    "lat": 51.525542,
    "lon": -0.138231
  },
  {
    "id": "BikePoints_99",
    "commonName": "Old Quebec Street, Marylebone",
    "lat": 51.514577,
    "lon": -0.158264
  },
  {
    "id": "BikePoints_100",
    "commonName": "Albert Embankment, Vauxhall",
    "lat": 51.490435,
    "lon": -0.122806
  },
  {
    "id": "BikePoints_101",
    "commonName": "Queen Street 1, Bank",
    "lat": 51.511553,
    "lon": -0.09294
  },
  {
    "id": "BikePoints_102",
    "commonName": "Jewry Street, Aldgate",
    "lat": 51.513406,
    "lon": -0.076793
  },
  {
    "id": "BikePoints_103",
    "commonName": "Vicarage Gate, Kensington",
    "lat": 51.504723,
    "lon": -0.192538
  },
  {
    "id": "BikePoints_104",
    "commonName": "Crosswall, Tower",
    "lat": 51.511594,
    "lon": -0.077121
  },
  {
    "id": "BikePoints_105",
    "commonName": "Westbourne Grove, Bayswater",
    "lat": 51.515529,
    "lon": -0.19024
  },
  {
    "id": "BikePoints_106",
    "commonName": "Woodstock Street, Mayfair",
    "lat": 51.514105,
    "lon": -0.147301
  },
  {
    "id": "BikePoints_107",
    "commonName": "Finsbury Leisure Centre, St. Luke's",
    "lat": 51.526008,
    "lon": -0.096317
  },
  {
    "id": "BikePoints_108",
    "commonName": "Abbey Orchard Street, Westminster",
    "lat": 51.498125,
    "lon": -0.132102
  },
  {
    "id": "BikePoints_109",
    "commonName": "Soho Square , Soho",
    "lat": 51.515631,
    "lon": -0.132328
  },
  {
    "id": "BikePoints_110",
    "commonName": "Wellington Road, St. John's Wood",
    "lat": 51.533043,
    "lon": -0.172528
  },
  {
    "id": "BikePoints_111",
    "commonName": "Park Lane , Hyde Park",
    "lat": 51.510017,
    "lon": -0.157275
  },
  {
    "id": "BikePoints_112",
    "commonName": "Stonecutter Street, Holborn",
    "lat": 51.515809,
    "lon": -0.10527
  },
  {
    "id": "BikePoints_114",
    "commonName": "Park Road (Baker Street), The Regent's Park",
    "lat": 51.524517,
    "lon": -0.158963
  },
  {
    "id": "BikePoints_115",
    "commonName": "Braham Street, Aldgate",
    "lat": 51.514233,
    "lon": -0.073537
  },
  {
    "id": "BikePoints_116",
    "commonName": "Little Argyll Street, West End",
    "lat": 51.514499,
    "lon": -0.141423
  },
  {
    "id": "BikePoints_117",
    "commonName": "Lollard Street, Vauxhall",
    "lat": 51.49288,
    "lon": -0.114934
  },
  {
    "id": "BikePoints_118",
    "commonName": "Rochester Row, Westminster",
    "lat": 51.495827,
    "lon": -0.135478
  },
  {
    "id": "BikePoints_119",
    "commonName": "Bath Street, St. Luke's",
    "lat": 51.525893,
    "lon": -0.090847
  },
  {
    "id": "BikePoints_120",
    "commonName": "The Guildhall, Guildhall",
    "lat": 51.515735,
    "lon": -0.09308
  },
  {
    "id": "BikePoints_121",
    "commonName": "Baker Street, Marylebone",
    "lat": 51.518913,
    "lon": -0.156166
  },
  {
    "id": "BikePoints_122",
    "commonName": "Norton Folgate, Liverpool Street",
    "lat": 51.521113,
    "lon": -0.078869
  },
  {
    "id": "BikePoints_123",
    "commonName": "St. John Street, Finsbury",
    "lat": 51.52836,
    "lon": -0.104724
  },
  {
    "id": "BikePoints_124",
    "commonName": "Eaton Square, Belgravia",
    "lat": 51.496544,
    "lon": -0.150905
  },
  {
    "id": "BikePoints_125",
    "commonName": "Borough High Street, The Borough",
    "lat": 51.500694,
    "lon": -0.094524
  },
  {
    "id": "BikePoints_126",
    "commonName": "Museum of London, Barbican",
    "lat": 51.517821,
    "lon": -0.096496
  },
  {
    "id": "BikePoints_127",
    "commonName": "Wood Street, Guildhall",
    "lat": 51.517008,
    "lon": -0.093885
  },
  {
    "id": "BikePoints_128",
    "commonName": "Emperor's Gate, South Kensington",
    "lat": 51.495362,
    "lon": -0.185296
  },
  {
    "id": "BikePoints_129",
    "commonName": "Golden Square, Soho",
    "lat": 51.511897,
    "lon": -0.137043
  },
  {
    "id": "BikePoints_130",
    "commonName": "Tower Gardens , Tower",
    "lat": 51.509506,
    "lon": -0.075459
  },
  {
    "id": "BikePoints_131",
    "commonName": "Eversholt Street , Camden Town",
    "lat": 51.533005,
    "lon": -0.136792
  },
  {
    "id": "BikePoints_132",
    "commonName": "Bethnal Green Road, Shoreditch",
    "lat": 51.523648,
    "lon": -0.074754
  },
  {
    "id": "BikePoints_133",
    "commonName": "Derry Street, Kensington",
    "lat": 51.501364,
    "lon": -0.191462
  },
  {
    "id": "BikePoints_134",
    "commonName": "Wapping High Street, Wapping",
    "lat": 51.504904,
    "lon": -0.06797
  },
  {
    "id": "BikePoints_135",
    "commonName": "Clerkenwell Green, Clerkenwell",
    "lat": 51.52326,
    "lon": -0.104708
  },
  {
    "id": "BikePoints_136",
    "commonName": "Queen Victoria Street, St. Paul's",
    "lat": 51.511961,
    "lon": -0.097441
  },
  {
    "id": "BikePoints_138",
    "commonName": "Green Street, Mayfair",
    "lat": 51.512276,
    "lon": -0.157436
  },
  {
    "id": "BikePoints_139",
    "commonName": "Lambeth Road, Vauxhall",
    "lat": 51.494881,
    "lon": -0.117974
  },
  {
    "id": "BikePoints_140",
    "commonName": "Finsbury Square , Moorgate",
    "lat": 51.520962,
    "lon": -0.085634
  },
  {
    "id": "BikePoints_141",
    "commonName": "Chapel Place, Marylebone",
    "lat": 51.515308,
    "lon": -0.147203
  },
  {
    "id": "BikePoints_142",
    "commonName": "West Cromwell Road, Earl's Court",
    "lat": 51.493724,
    "lon": -0.198286
  },
  {
    "id": "BikePoints_143",
    "commonName": "Pont Street, Knightsbridge",
    "lat": 51.496886,
    "lon": -0.161203
  },
  {
    "id": "BikePoints_144",
    "commonName": "Kennington Cross, Kennington",
    "lat": 51.48894,
    "lon": -0.111435
  },
  {
    "id": "BikePoints_145",
    "commonName": "Ilchester Place, Kensington",
    "lat": 51.500743,
    "lon": -0.202759
  },
  {
    "id": "BikePoints_146",
    "commonName": "Vauxhall Bridge , Pimlico",
    "lat": 51.488365,
    "lon": -0.129361
  },
  {
    "id": "BikePoints_148",
    "commonName": "Tachbrook Street, Victoria",
    "lat": 51.492111,
    "lon": -0.138364
  },
  {
    "id": "BikePoints_149",
    "commonName": "Kennington Road Post Office, Oval",
    "lat": 51.484788,
    "lon": -0.110683
  },
  {
    "id": "BikePoints_150",
    "commonName": "Holy Trinity Brompton, Knightsbridge",
    "lat": 51.497056,
    "lon": -0.168917
  },
  {
    "id": "BikePoints_151",
    "commonName": "Chepstow Villas, Notting Hill",
    "lat": 51.512136,
    "lon": -0.201554
  },
  {
    "id": "BikePoints_152",
    "commonName": "Hampton Street, Walworth",
    "lat": 51.49217,
    "lon": -0.101536
  },
  {
    "id": "BikePoints_153",
    "commonName": "Bayswater Road, Hyde Park",
    "lat": 51.511933,
    "lon": -0.174411
  },
  {
    "id": "BikePoints_154",
    "commonName": "Waterloo Station 3, Waterloo",
    "lat": 51.503791,
    "lon": -0.112824
  },
  {
    "id": "BikePoints_155",
    "commonName": "Lexham Gardens, Kensington",
    "lat": 51.495866,
    "lon": -0.191933
  },
  {
    "id": "BikePoints_156",
    "commonName": "New Kent Road, The Borough",
    "lat": 51.494436,
    "lon": -0.092921
  },
  {
    "id": "BikePoints_157",
    "commonName": "Wright's Lane, Kensington",
    "lat": 51.500397,
    "lon": -0.193068
  },
  {
    "id": "BikePoints_158",
    "commonName": "Trebovir Road, Earl's Court",
    "lat": 51.490853,
    "lon": -0.19617
  },
  {
    "id": "BikePoints_159",
    "commonName": "Great Marlborough Street, Soho",
    "lat": 51.514619,
    "lon": -0.137841
  },
  {
    "id": "BikePoints_160",
    "commonName": "Waterloo Place, St. James's",
    "lat": 51.506633,
    "lon": -0.131773
  },
  {
    "id": "BikePoints_161",
    "commonName": "Guildhouse Street, Victoria",
    "lat": 51.492345,
    "lon": -0.141334
  },
  {
    "id": "BikePoints_162",
    "commonName": "Southampton Place, Holborn",
    "lat": 51.517606,
    "lon": -0.121328
  },
  {
    "id": "BikePoints_163",
    "commonName": "Sloane Avenue, Knightsbridge",
    "lat": 51.493184,
    "lon": -0.167894
  },
  {
    "id": "BikePoints_164",
    "commonName": "Cleveland Gardens, Bayswater",
    "lat": 51.515607,
    "lon": -0.183118
  },
  {
    "id": "BikePoints_165",
    "commonName": "Orsett Terrace, Bayswater",
    "lat": 51.517932,
    "lon": -0.183716
  },
  {
    "id": "BikePoints_166",
    "commonName": "Seville Street, Knightsbridge",
    "lat": 51.501855,
    "lon": -0.159237
  },
  {
    "id": "BikePoints_167",
    "commonName": "Eccleston Place, Victoria",
    "lat": 51.49395,
    "lon": -0.147624
  },
  {
    "id": "BikePoints_169",
    "commonName": "Porchester Place, Paddington",
    "lat": 51.514746,
    "lon": -0.165164
  },
  {
    "id": "BikePoints_170",
    "commonName": "Hardwick Street, Clerkenwell",
    "lat": 51.527842,
    "lon": -0.108068
  },
  {
    "id": "BikePoints_171",
    "commonName": "Collingham Gardens, Earl's Court",
    "lat": 51.491615,
    "lon": -0.186753
  },
  {
    "id": "BikePoints_172",
    "commonName": "Sumner Place, South Kensington",
    "lat": 51.491211,
    "lon": -0.173715
  },
  {
    "id": "BikePoints_173",
    "commonName": "Waterloo Road, South Bank",
    "lat": 51.50486,
    "lon": -0.113001
  },
  {
    "id": "BikePoints_174",
    "commonName": "Strand, Strand",
    "lat": 51.512529,
    "lon": -0.115163
  },
  {
    "id": "BikePoints_175",
    "commonName": "Worship Street, Shoreditch",
    "lat": 51.521668,
    "lon": -0.079608
  },
  {
    "id": "BikePoints_176",
    "commonName": "Gloucester Terrace, Bayswater",
    "lat": 51.517919,
    "lon": -0.188098
  },
  {
    "id": "BikePoints_177",
    "commonName": "Ashley Place, Victoria",
    "lat": 51.49616,
    "lon": -0.140947
  },
  {
    "id": "BikePoints_178",
    "commonName": "Warwick Square, Pimlico",
    "lat": 51.489856,
    "lon": -0.141923
  },
  {
    "id": "BikePoints_180",
    "commonName": "North Audley Street, Mayfair",
    "lat": 51.512911,
    "lon": -0.153645
  },
  {
    "id": "BikePoints_181",
    "commonName": "Belgrave Square, Belgravia",
    "lat": 51.499412,
    "lon": -0.152317
  },
  {
    "id": "BikePoints_182",
    "commonName": "Bell Street , Marylebone",
    "lat": 51.522029,
    "lon": -0.165842
  },
  {
    "id": "BikePoints_183",
    "commonName": "Riverlight North, Nine Elms",
    "lat": 51.482362,
    "lon": -0.136123
  },
  {
    "id": "BikePoints_184",
    "commonName": "Portland Place, Marylebone",
    "lat": 51.520715,
    "lon": -0.145211
  },
  {
    "id": "BikePoints_185",
    "commonName": "Alderney Street, Pimlico",
    "lat": 51.488057,
    "lon": -0.140741
  },
  {
    "id": "BikePoints_186",
    "commonName": "South Wharf Road, Paddington",
    "lat": 51.517335,
    "lon": -0.17581
  },
  {
    "id": "BikePoints_187",
    "commonName": "Queen's Gate (South), South Kensington",
    "lat": 51.492479,
    "lon": -0.178433
  },
  {
    "id": "BikePoints_188",
    "commonName": "Nutford Place, Marylebone",
    "lat": 51.516517,
    "lon": -0.164393
  },
  {
    "id": "BikePoints_189",
    "commonName": "Claremont Square, Angel",
    "lat": 51.531666,
    "lon": -0.109914
  },
  {
    "id": "BikePoints_190",
    "commonName": "Rampayne Street, Pimlico",
    "lat": 51.489975,
    "lon": -0.132845
  },
  {
    "id": "BikePoints_191",
    "commonName": "Hyde Park Corner, Hyde Park",
    "lat": 51.503117,
    "lon": -0.15352
  },
  {
    "id": "BikePoints_192",
    "commonName": "Wardour Street, Soho",
    "lat": 51.512515,
    "lon": -0.133201
  },
  {
    "id": "BikePoints_193",
    "commonName": "Bankside Mix, Bankside",
    "lat": 51.505817,
    "lon": -0.100186
  },
  {
    "id": "BikePoints_194",
    "commonName": "Hop Exchange, The Borough",
    "lat": 51.504627,
    "lon": -0.091773
  },
  {
    "id": "BikePoints_195",
    "commonName": "Milroy Walk, South Bank",
    "lat": 51.507244,
    "lon": -0.106237
  },
  {
    "id": "BikePoints_196",
    "commonName": "Union Street, The Borough",
    "lat": 51.503688,
    "lon": -0.098497
  },
  {
    "id": "BikePoints_197",
    "commonName": "Stamford Street, South Bank",
    "lat": 51.505569,
    "lon": -0.111606
  },
  {
    "id": "BikePoints_199",
    "commonName": "Great Tower Street, Monument",
    "lat": 51.510484,
    "lon": -0.082989
  },
  {
    "id": "BikePoints_200",
    "commonName": "LMU Commercial Road, Whitechapel",
    "lat": 51.514924,
    "lon": -0.066078
  },
  {
    "id": "BikePoints_201",
    "commonName": "Dorset Square, Marylebone",
    "lat": 51.522596,
    "lon": -0.161113
  },
  {
    "id": "BikePoints_202",
    "commonName": "Leman Street, Aldgate",
    "lat": 51.512363,
    "lon": -0.069542
  },
  {
    "id": "BikePoints_203",
    "commonName": "West Smithfield Rotunda, Farringdon",
    "lat": 51.518218,
    "lon": -0.100791
  },
  {
    "id": "BikePoints_204",
    "commonName": "Margery Street, Clerkenwell",
    "lat": 51.526599,
    "lon": -0.112432
  },
  {
    "id": "BikePoints_206",
    "commonName": "New Road 1 , Whitechapel",
    "lat": 51.518154,
    "lon": -0.062697
  },
  {
    "id": "BikePoints_207",
    "commonName": "Grosvenor Crescent, Belgravia",
    "lat": 51.501352,
    "lon": -0.153194
  },
  {
    "id": "BikePoints_208",
    "commonName": "Mallory Street, Marylebone",
    "lat": 51.525051,
    "lon": -0.166304
  },
  {
    "id": "BikePoints_209",
    "commonName": "Denyer Street, Knightsbridge",
    "lat": 51.493583,
    "lon": -0.165101
  },
  {
    "id": "BikePoints_210",
    "commonName": "Hinde Street, Marylebone",
    "lat": 51.516814,
    "lon": -0.151926
  },
  {
    "id": "BikePoints_211",
    "commonName": "Cadogan Place, Knightsbridge",
    "lat": 51.494645,
    "lon": -0.158105
  },
  {
    "id": "BikePoints_212",
    "commonName": "Campden Hill Road, Notting Hill",
    "lat": 51.506584,
    "lon": -0.199004
  },
  {
    "id": "BikePoints_213",
    "commonName": "Wellington Arch, Hyde Park",
    "lat": 51.50274,
    "lon": -0.149569
  },
  {
    "id": "BikePoints_214",
    "commonName": "Endsleigh Gardens, Euston",
    "lat": 51.526838,
    "lon": -0.130504
  },
  {
    "id": "BikePoints_215",
    "commonName": "Moorfields, Moorgate",
    "lat": 51.519069,
    "lon": -0.088285
  },
  {
    "id": "BikePoints_216",
    "commonName": "Old Brompton Road, South Kensington",
    "lat": 51.490945,
    "lon": -0.18119
  },
  {
    "id": "BikePoints_217",
    "commonName": "Wormwood Street, Liverpool Street",
    "lat": 51.516154,
    "lon": -0.082422
  },
  {
    "id": "BikePoints_218",
    "commonName": "St. Luke's Church, Chelsea",
    "lat": 51.489716,
    "lon": -0.170194
  },
  {
    "id": "BikePoints_219",
    "commonName": "Bramham Gardens, Earl's Court",
    "lat": 51.490163,
    "lon": -0.190393
  },
  {
    "id": "BikePoints_220",
    "commonName": "Chelsea Green, Chelsea",
    "lat": 51.490664,
    "lon": -0.166485
  },
  {
    "id": "BikePoints_221",
    "commonName": "Horseferry Road, Westminster",
    "lat": 51.494816,
    "lon": -0.130458
  },
  {
    "id": "BikePoints_222",
    "commonName": "Knightsbridge, Hyde Park",
    "lat": 51.502757,
    "lon": -0.155349
  },
  {
    "id": "BikePoints_223",
    "commonName": "Rodney Road , Walworth",
    "lat": 51.491484,
    "lon": -0.09022
  },
  {
    "id": "BikePoints_225",
    "commonName": "Notting Hill Gate Station, Notting Hill",
    "lat": 51.509353,
    "lon": -0.196422
  },
  {
    "id": "BikePoints_226",
    "commonName": "Charles II Street, West End",
    "lat": 51.508446,
    "lon": -0.131961
  },
  {
    "id": "BikePoints_227",
    "commonName": "Great Percy Street, Clerkenwell",
    "lat": 51.528915,
    "lon": -0.11548
  },
  {
    "id": "BikePoints_228",
    "commonName": "St. James's Square, St. James's",
    "lat": 51.507424,
    "lon": -0.134621
  },
  {
    "id": "BikePoints_229",
    "commonName": "Whitehall Place, Strand",
    "lat": 51.506543,
    "lon": -0.123179
  },
  {
    "id": "BikePoints_230",
    "commonName": "Poured Lines, Bankside",
    "lat": 51.506692,
    "lon": -0.103137
  },
  {
    "id": "BikePoints_231",
    "commonName": "Queen's Gate (Central), South Kensington",
    "lat": 51.493967,
    "lon": -0.178732
  },
  {
    "id": "BikePoints_232",
    "commonName": "Carey Street, Holborn",
    "lat": 51.51501,
    "lon": -0.112753
  },
  {
    "id": "BikePoints_233",
    "commonName": "Pall Mall East, West End",
    "lat": 51.50777,
    "lon": -0.130699
  },
  {
    "id": "BikePoints_234",
    "commonName": "Liverpool Road (N1 Centre), Angel",
    "lat": 51.534504,
    "lon": -0.106992
  },
  {
    "id": "BikePoints_235",
    "commonName": "Kennington Road  , Vauxhall",
    "lat": 51.495718,
    "lon": -0.110889
  },
  {
    "id": "BikePoints_236",
    "commonName": "Fashion Street, Whitechapel",
    "lat": 51.51838,
    "lon": -0.073438
  },
  {
    "id": "BikePoints_237",
    "commonName": "Dock Street, Wapping",
    "lat": 51.509786,
    "lon": -0.068161
  },
  {
    "id": "BikePoints_238",
    "commonName": "Frampton Street, Paddington",
    "lat": 51.523353,
    "lon": -0.175116
  },
  {
    "id": "BikePoints_239",
    "commonName": "Warren Street Station, Euston",
    "lat": 51.524438,
    "lon": -0.138019
  },
  {
    "id": "BikePoints_240",
    "commonName": "Colombo Street, Southwark",
    "lat": 51.505459,
    "lon": -0.105692
  },
  {
    "id": "BikePoints_242",
    "commonName": "Beaumont Street, Marylebone",
    "lat": 51.522008,
    "lon": -0.151359
  },
  {
    "id": "BikePoints_243",
    "commonName": "Gloucester Street, Pimlico",
    "lat": 51.490962,
    "lon": -0.139625
  },
  {
    "id": "BikePoints_244",
    "commonName": "Earnshaw Street , Covent Garden",
    "lat": 51.516118,
    "lon": -0.128585
  },
  {
    "id": "BikePoints_245",
    "commonName": "Grosvenor Road, Pimlico",
    "lat": 51.485357,
    "lon": -0.142207
  },
  {
    "id": "BikePoints_246",
    "commonName": "Berry Street, Clerkenwell",
    "lat": 51.522853,
    "lon": -0.099994
  },
  {
    "id": "BikePoints_247",
    "commonName": "St. John's Wood Church, The Regent's Park",
    "lat": 51.529678,
    "lon": -0.167913
  },
  {
    "id": "BikePoints_248",
    "commonName": "Triangle Car Park, Hyde Park",
    "lat": 51.506451,
    "lon": -0.170279
  },
  {
    "id": "BikePoints_249",
    "commonName": "Harper Road, The Borough",
    "lat": 51.498597,
    "lon": -0.096191
  },
  {
    "id": "BikePoints_250",
    "commonName": "Royal Avenue 1, Chelsea",
    "lat": 51.489932,
    "lon": -0.162727
  },
  {
    "id": "BikePoints_251",
    "commonName": "Brushfield Street, Liverpool Street",
    "lat": 51.518908,
    "lon": -0.079249
  },
  {
    "id": "BikePoints_252",
    "commonName": "Jubilee Gardens, South Bank",
    "lat": 51.504636,
    "lon": -0.116542
  },
  {
    "id": "BikePoints_253",
    "commonName": "Shoreditch Park, Hoxton",
    "lat": 51.534042,
    "lon": -0.086379
  },
  {
    "id": "BikePoints_254",
    "commonName": "Chadwell Street, Angel",
    "lat": 51.530515,
    "lon": -0.106408
  },
  {
    "id": "BikePoints_255",
    "commonName": "Clifton Road, Maida Vale",
    "lat": 51.525575,
    "lon": -0.179592
  },
  {
    "id": "BikePoints_256",
    "commonName": "Houghton Street, Strand",
    "lat": 51.51362,
    "lon": -0.116764
  },
  {
    "id": "BikePoints_257",
    "commonName": "Westminster University, Marylebone",
    "lat": 51.522481,
    "lon": -0.154907
  },
  {
    "id": "BikePoints_258",
    "commonName": "Kensington Gore, Knightsbridge",
    "lat": 51.501432,
    "lon": -0.178656
  },
  {
    "id": "BikePoints_259",
    "commonName": "Bourne Street, Belgravia",
    "lat": 51.490959,
    "lon": -0.153233
  },
  {
    "id": "BikePoints_260",
    "commonName": "Broadwick Street, Soho",
    "lat": 51.513684,
    "lon": -0.13558
  },
  {
    "id": "BikePoints_261",
    "commonName": "Princes Square, Bayswater",
    "lat": 51.513489,
    "lon": -0.191351
  },
  {
    "id": "BikePoints_262",
    "commonName": "LSBU (Borough Road), Elephant & Castle",
    "lat": 51.498744,
    "lon": -0.103132
  },
  {
    "id": "BikePoints_263",
    "commonName": "St. Mary Axe, Aldgate",
    "lat": 51.514225,
    "lon": -0.08066
  },
  {
    "id": "BikePoints_264",
    "commonName": "Tysoe Street, Clerkenwell",
    "lat": 51.526443,
    "lon": -0.109256
  },
  {
    "id": "BikePoints_265",
    "commonName": "Southwick Street, Paddington",
    "lat": 51.515953,
    "lon": -0.169249
  },
  {
    "id": "BikePoints_266",
    "commonName": "Queen's Gate (North), Kensington",
    "lat": 51.501026,
    "lon": -0.180246
  },
  {
    "id": "BikePoints_268",
    "commonName": "Belgrave Road, Victoria",
    "lat": 51.493204,
    "lon": -0.144132
  },
  {
    "id": "BikePoints_269",
    "commonName": "Empire Square, The Borough",
    "lat": 51.500823,
    "lon": -0.08974
  },
  {
    "id": "BikePoints_270",
    "commonName": "Kennington Lane Rail Bridge, Vauxhall",
    "lat": 51.486343,
    "lon": -0.122492
  },
  {
    "id": "BikePoints_271",
    "commonName": "London Zoo,  The Regent's Park",
    "lat": 51.535836,
    "lon": -0.156285
  },
  {
    "id": "BikePoints_272",
    "commonName": "Baylis Road, Waterloo",
    "lat": 51.501444,
    "lon": -0.110699
  },
  {
    "id": "BikePoints_273",
    "commonName": "Belvedere Road 1, South Bank",
    "lat": 51.506133,
    "lon": -0.114686
  },
  {
    "id": "BikePoints_274",
    "commonName": "Warwick Road, Olympia",
    "lat": 51.496712,
    "lon": -0.205284
  },
  {
    "id": "BikePoints_275",
    "commonName": "Barbican Centre, Barbican",
    "lat": 51.520044,
    "lon": -0.092176
  },
  {
    "id": "BikePoints_276",
    "commonName": "Lower Thames Street, Monument",
    "lat": 51.509301,
    "lon": -0.084985
  },
  {
    "id": "BikePoints_277",
    "commonName": "Kensington Church Street, Kensington",
    "lat": 51.503157,
    "lon": -0.191496
  },
  {
    "id": "BikePoints_278",
    "commonName": "Tooley Street, Bermondsey",
    "lat": 51.503493,
    "lon": -0.07962
  },
  {
    "id": "BikePoints_279",
    "commonName": "North Wharf Road, Paddington",
    "lat": 51.518622,
    "lon": -0.176645
  },
  {
    "id": "BikePoints_280",
    "commonName": "Royal Avenue 2, Chelsea",
    "lat": 51.490083,
    "lon": -0.162418
  },
  {
    "id": "BikePoints_281",
    "commonName": "Smith Square, Westminster",
    "lat": 51.495805,
    "lon": -0.127575
  },
  {
    "id": "BikePoints_282",
    "commonName": "Royal London Hospital, Whitechapel",
    "lat": 51.519064,
    "lon": -0.059642
  },
  {
    "id": "BikePoints_283",
    "commonName": "Kingsway, Covent Garden",
    "lat": 51.514409,
    "lon": -0.118478
  },
  {
    "id": "BikePoints_284",
    "commonName": "Lambeth North Station, Waterloo",
    "lat": 51.49914,
    "lon": -0.112031
  },
  {
    "id": "BikePoints_286",
    "commonName": "St. John's Wood Road, St. John's Wood",
    "lat": 51.527294,
    "lon": -0.174653
  },
  {
    "id": "BikePoints_287",
    "commonName": "Bedford Way, Bloomsbury",
    "lat": 51.523673,
    "lon": -0.128377
  },
  {
    "id": "BikePoints_288",
    "commonName": "Elizabeth Bridge, Victoria",
    "lat": 51.492369,
    "lon": -0.147478
  },
  {
    "id": "BikePoints_289",
    "commonName": "South Audley Street, Mayfair",
    "lat": 51.50923,
    "lon": -0.151296
  },
  {
    "id": "BikePoints_291",
    "commonName": "Claverton Street, Pimlico",
    "lat": 51.484839,
    "lon": -0.138089
  },
  {
    "id": "BikePoints_292",
    "commonName": "Montpelier Street, Knightsbridge",
    "lat": 51.498884,
    "lon": -0.165471
  },
  {
    "id": "BikePoints_293",
    "commonName": "Kensington Olympia Station, Olympia",
    "lat": 51.498157,
    "lon": -0.209494
  },
  {
    "id": "BikePoints_294",
    "commonName": "St. George's Square, Pimlico",
    "lat": 51.488226,
    "lon": -0.135635
  },
  {
    "id": "BikePoints_295",
    "commonName": "Swan Street, The Borough",
    "lat": 51.500296,
    "lon": -0.092762
  },
  {
    "id": "BikePoints_296",
    "commonName": "Knaresborough Place, Earl's Court",
    "lat": 51.493631,
    "lon": -0.190603
  },
  {
    "id": "BikePoints_297",
    "commonName": "Geraldine Street, Elephant & Castle",
    "lat": 51.496127,
    "lon": -0.106
  },
  {
    "id": "BikePoints_298",
    "commonName": "Curlew Street, Shad Thames",
    "lat": 51.502279,
    "lon": -0.074189
  },
  {
    "id": "BikePoints_299",
    "commonName": "Vincent Square, Westminster",
    "lat": 51.493985,
    "lon": -0.136928
  },
  {
    "id": "BikePoints_300",
    "commonName": "Serpentine Car Park, Hyde Park",
    "lat": 51.505014,
    "lon": -0.17306
  },
  {
    "id": "BikePoints_301",
    "commonName": "Marylebone Lane, Marylebone",
    "lat": 51.514759,
    "lon": -0.148105
  },
  {
    "id": "BikePoints_302",
    "commonName": "Putney Pier, Wandsworth",
    "lat": 51.466907,
    "lon": -0.216573
  },
  {
    "id": "BikePoints_303",
    "commonName": "Albert Gate, Hyde Park",
    "lat": 51.502953,
    "lon": -0.158456
  },
  {
    "id": "BikePoints_306",
    "commonName": "Rathbone Street, Fitzrovia",
    "lat": 51.518162,
    "lon": -0.135025
  },
  {
    "id": "BikePoints_307",
    "commonName": "Black Lion Gate, Kensington Gardens",
    "lat": 51.509908,
    "lon": -0.187842
  },
  {
    "id": "BikePoints_308",
    "commonName": "Long Lane , Bermondsey",
    "lat": 51.499075,
    "lon": -0.085666
  },
  {
    "id": "BikePoints_309",
    "commonName": "Embankment (Savoy), Strand",
    "lat": 51.509631,
    "lon": -0.119047
  },
  {
    "id": "BikePoints_310",
    "commonName": "Black Prince Road, Vauxhall",
    "lat": 51.490867,
    "lon": -0.116911
  },
  {
    "id": "BikePoints_311",
    "commonName": "Foley Street, Fitzrovia",
    "lat": 51.519181,
    "lon": -0.140485
  },
  {
    "id": "BikePoints_312",
    "commonName": "Grove End Road, St. John's Wood",
    "lat": 51.530889,
    "lon": -0.17677
  },
  {
    "id": "BikePoints_313",
    "commonName": "Wells Street, Fitzrovia",
    "lat": 51.517344,
    "lon": -0.138072
  },
  {
    "id": "BikePoints_314",
    "commonName": "Tyers Gate, Bermondsey",
    "lat": 51.500889,
    "lon": -0.083159
  },
  {
    "id": "BikePoints_315",
    "commonName": "The Tennis Courts, The Regent's Park",
    "lat": 51.525367,
    "lon": -0.153463
  },
  {
    "id": "BikePoints_317",
    "commonName": "Dickens Square, Borough",
    "lat": 51.496791,
    "lon": -0.093913
  },
  {
    "id": "BikePoints_318",
    "commonName": "Sackville Street, Mayfair",
    "lat": 51.510048,
    "lon": -0.138846
  },
  {
    "id": "BikePoints_319",
    "commonName": "Baldwin Street, St. Luke's",
    "lat": 51.527025,
    "lon": -0.088542
  },
  {
    "id": "BikePoints_320",
    "commonName": "Queen Mother Sports Centre, Victoria",
    "lat": 51.493573,
    "lon": -0.139956
  },
  {
    "id": "BikePoints_321",
    "commonName": "Bermondsey Street, Bermondsey",
    "lat": 51.497855,
    "lon": -0.081608
  },
  {
    "id": "BikePoints_322",
    "commonName": "Palissy Street, Shoreditch",
    "lat": 51.526293,
    "lon": -0.073955
  },
  {
    "id": "BikePoints_323",
    "commonName": "Clifton Street, Shoreditch",
    "lat": 51.523196,
    "lon": -0.083067
  },
  {
    "id": "BikePoints_324",
    "commonName": "Ontario Street, Elephant & Castle",
    "lat": 51.49652,
    "lon": -0.101384
  },
  {
    "id": "BikePoints_325",
    "commonName": "St. Martin's Street, West End",
    "lat": 51.509087,
    "lon": -0.129697
  },
  {
    "id": "BikePoints_326",
    "commonName": "Graham Street, Angel",
    "lat": 51.532661,
    "lon": -0.099981
  },
  {
    "id": "BikePoints_327",
    "commonName": "New North Road 1, Hoxton",
    "lat": 51.53095,
    "lon": -0.085603
  },
  {
    "id": "BikePoints_328",
    "commonName": "New North Road 2, Hoxton",
    "lat": 51.53114,
    "lon": -0.086016
  },
  {
    "id": "BikePoints_329",
    "commonName": "Prince Albert Road, The Regent's Park",
    "lat": 51.535892,
    "lon": -0.160854
  },
  {
    "id": "BikePoints_330",
    "commonName": "Eastbourne Mews, Paddington",
    "lat": 51.516417,
    "lon": -0.179135
  },
  {
    "id": "BikePoints_331",
    "commonName": "Bunhill Row, Moorgate",
    "lat": 51.520858,
    "lon": -0.089887
  },
  {
    "id": "BikePoints_332",
    "commonName": "Nevern Place, Earl's Court",
    "lat": 51.493343,
    "lon": -0.194757
  },
  {
    "id": "BikePoints_333",
    "commonName": "Palace Gardens Terrace, Notting Hill",
    "lat": 51.508605,
    "lon": -0.193764
  },
  {
    "id": "BikePoints_334",
    "commonName": "Concert Hall Approach 1, South Bank",
    "lat": 51.505044,
    "lon": -0.115851
  },
  {
    "id": "BikePoints_335",
    "commonName": "Tavistock Street, Covent Garden",
    "lat": 51.511968,
    "lon": -0.120718
  },
  {
    "id": "BikePoints_336",
    "commonName": "Concert Hall Approach 2, South Bank",
    "lat": 51.504942,
    "lon": -0.115533
  },
  {
    "id": "BikePoints_337",
    "commonName": "Pembridge Villas, Notting Hill",
    "lat": 51.511084,
    "lon": -0.197524
  },
  {
    "id": "BikePoints_338",
    "commonName": "Wellington Street , Strand",
    "lat": 51.511756,
    "lon": -0.119643
  },
  {
    "id": "BikePoints_339",
    "commonName": "Risinghill Street, Angel",
    "lat": 51.533319,
    "lon": -0.111781
  },
  {
    "id": "BikePoints_340",
    "commonName": "Bank of England Museum, Bank",
    "lat": 51.514441,
    "lon": -0.087587
  },
  {
    "id": "BikePoints_341",
    "commonName": "Craven Street, Strand",
    "lat": 51.508103,
    "lon": -0.126021
  },
  {
    "id": "BikePoints_343",
    "commonName": "London Zoo Car Park, The Regent's Park",
    "lat": 51.536922,
    "lon": -0.150181
  },
  {
    "id": "BikePoints_344",
    "commonName": "Goswell Road (City Uni), Finsbury",
    "lat": 51.528246,
    "lon": -0.101026
  },
  {
    "id": "BikePoints_345",
    "commonName": "Flood Street, Chelsea",
    "lat": 51.488023,
    "lon": -0.166878
  },
  {
    "id": "BikePoints_347",
    "commonName": "Lower Marsh, Waterloo",
    "lat": 51.500139,
    "lon": -0.113936
  },
  {
    "id": "BikePoints_348",
    "commonName": "Grosvenor Square, Mayfair",
    "lat": 51.51217,
    "lon": -0.150481
  },
  {
    "id": "BikePoints_349",
    "commonName": "St. George Street, Mayfair",
    "lat": 51.51196,
    "lon": -0.142783
  },
  {
    "id": "BikePoints_350",
    "commonName": "Queen's Gate, Kensington Gardens",
    "lat": 51.501715,
    "lon": -0.179854
  },
  {
    "id": "BikePoints_351",
    "commonName": "Macclesfield Rd, St Lukes",
    "lat": 51.529423,
    "lon": -0.097122
  },
  {
    "id": "BikePoints_352",
    "commonName": "Vauxhall Street, Vauxhall",
    "lat": 51.486965,
    "lon": -0.116625
  },
  {
    "id": "BikePoints_353",
    "commonName": "Greycoat Street , Westminster",
    "lat": 51.494591,
    "lon": -0.134234
  },
  {
    "id": "BikePoints_354",
    "commonName": "Northumberland Avenue, Strand",
    "lat": 51.506767,
    "lon": -0.123702
  },
  {
    "id": "BikePoints_355",
    "commonName": "Oval Way, Vauxhall",
    "lat": 51.486575,
    "lon": -0.117286
  },
  {
    "id": "BikePoints_356",
    "commonName": "South Kensington Station, South Kensington",
    "lat": 51.494412,
    "lon": -0.173881
  },
  {
    "id": "BikePoints_357",
    "commonName": "Howland Street, Fitzrovia",
    "lat": 51.520994,
    "lon": -0.139016
  },
  {
    "id": "BikePoints_358",
    "commonName": "High Holborn , Covent Garden",
    "lat": 51.516226,
    "lon": -0.124826
  },
  {
    "id": "BikePoints_360",
    "commonName": "Howick Place, Westminster",
    "lat": 51.496753,
    "lon": -0.138733
  },
  {
    "id": "BikePoints_361",
    "commonName": "Waterloo Station 2, Waterloo",
    "lat": 51.503919,
    "lon": -0.113426
  },
  {
    "id": "BikePoints_362",
    "commonName": "Royal College Street, Camden Town",
    "lat": 51.536264,
    "lon": -0.133952
  },
  {
    "id": "BikePoints_363",
    "commonName": "Lord's, St. John's Wood",
    "lat": 51.529121,
    "lon": -0.171185
  },
  {
    "id": "BikePoints_364",
    "commonName": "Alfred Place, Bloomsbury",
    "lat": 51.519656,
    "lon": -0.132339
  },
  {
    "id": "BikePoints_365",
    "commonName": "City Road, Angel",
    "lat": 51.530344,
    "lon": -0.100168
  },
  {
    "id": "BikePoints_366",
    "commonName": "Millennium Hotel, Mayfair",
    "lat": 51.510919,
    "lon": -0.151126
  },
  {
    "id": "BikePoints_367",
    "commonName": "Harrowby Street, Marylebone",
    "lat": 51.517372,
    "lon": -0.164207
  },
  {
    "id": "BikePoints_368",
    "commonName": "Harriet Street, Knightsbridge",
    "lat": 51.500241,
    "lon": -0.15934
  },
  {
    "id": "BikePoints_370",
    "commonName": "Paddington Green, Paddington",
    "lat": 51.520205,
    "lon": -0.174593
  },
  {
    "id": "BikePoints_371",
    "commonName": "King Edward Walk, Waterloo",
    "lat": 51.49775,
    "lon": -0.10988
  },
  {
    "id": "BikePoints_372",
    "commonName": "Sardinia Street, Holborn",
    "lat": 51.515208,
    "lon": -0.117863
  },
  {
    "id": "BikePoints_373",
    "commonName": "Prince Consort Road, Knightsbridge",
    "lat": 51.499806,
    "lon": -0.176415
  },
  {
    "id": "BikePoints_374",
    "commonName": "Waterloo Station 1, Waterloo",
    "lat": 51.504027,
    "lon": -0.113864
  },
  {
    "id": "BikePoints_375",
    "commonName": "Kensington Town Hall, Kensington",
    "lat": 51.501945,
    "lon": -0.194392
  },
  {
    "id": "BikePoints_376",
    "commonName": "Millbank Tower, Pimlico",
    "lat": 51.491884,
    "lon": -0.125674
  },
  {
    "id": "BikePoints_377",
    "commonName": "Waterloo Bridge, South Bank",
    "lat": 51.505354,
    "lon": -0.113656
  },
  {
    "id": "BikePoints_379",
    "commonName": "Turquoise Island, Notting Hill",
    "lat": 51.514311,
    "lon": -0.200838
  },
  {
    "id": "BikePoints_380",
    "commonName": "Stanhope Gate, Mayfair",
    "lat": 51.506864,
    "lon": -0.150666
  },
  {
    "id": "BikePoints_381",
    "commonName": "Charlotte Street, Fitzrovia",
    "lat": 51.51953,
    "lon": -0.135777
  },
  {
    "id": "BikePoints_382",
    "commonName": "Farm Street, Mayfair",
    "lat": 51.509351,
    "lon": -0.147449
  },
  {
    "id": "BikePoints_383",
    "commonName": "Frith Street, Soho",
    "lat": 51.513103,
    "lon": -0.131213
  },
  {
    "id": "BikePoints_384",
    "commonName": "Marloes Road, Kensington",
    "lat": 51.496481,
    "lon": -0.192404
  },
  {
    "id": "BikePoints_386",
    "commonName": "Moor Street, Soho",
    "lat": 51.513527,
    "lon": -0.13011
  },
  {
    "id": "BikePoints_387",
    "commonName": "Fire Brigade Pier, Vauxhall",
    "lat": 51.493699,
    "lon": -0.121394
  },
  {
    "id": "BikePoints_388",
    "commonName": "Southampton Street, Strand",
    "lat": 51.510701,
    "lon": -0.121723
  },
  {
    "id": "BikePoints_389",
    "commonName": "Upper Grosvenor Street, Mayfair",
    "lat": 51.51013,
    "lon": -0.155757
  },
  {
    "id": "BikePoints_390",
    "commonName": "Buxton Street 1, Shoreditch",
    "lat": 51.521776,
    "lon": -0.068856
  },
  {
    "id": "BikePoints_392",
    "commonName": "Imperial College, Knightsbridge",
    "lat": 51.499428,
    "lon": -0.179702
  },
  {
    "id": "BikePoints_393",
    "commonName": "Snow Hill, Farringdon",
    "lat": 51.517334,
    "lon": -0.103604
  },
  {
    "id": "BikePoints_394",
    "commonName": "Aberdeen Place, St. John's Wood",
    "lat": 51.524826,
    "lon": -0.176268
  },
  {
    "id": "BikePoints_395",
    "commonName": "Cadogan Gardens, Chelsea",
    "lat": 51.492462,
    "lon": -0.159919
  },
  {
    "id": "BikePoints_396",
    "commonName": "Shouldham Street, Marylebone",
    "lat": 51.51809,
    "lon": -0.163609
  },
  {
    "id": "BikePoints_397",
    "commonName": "Devonshire Terrace, Bayswater",
    "lat": 51.51348,
    "lon": -0.17977
  },
  {
    "id": "BikePoints_398",
    "commonName": "Holland Park, Kensington",
    "lat": 51.502319,
    "lon": -0.200742
  },
  {
    "id": "BikePoints_399",
    "commonName": "Brick Lane Market, Shoreditch",
    "lat": 51.522617,
    "lon": -0.071653
  },
  {
    "id": "BikePoints_400",
    "commonName": "George Street, Marylebone",
    "lat": 51.517703,
    "lon": -0.154106
  },
  {
    "id": "BikePoints_401",
    "commonName": "Columbia Road, Shoreditch",
    "lat": 51.528187,
    "lon": -0.075375
  },
  {
    "id": "BikePoints_402",
    "commonName": "Penfold Street, Marylebone",
    "lat": 51.522892,
    "lon": -0.171681
  },
  {
    "id": "BikePoints_403",
    "commonName": "George Place Mews, Marylebone",
    "lat": 51.516892,
    "lon": -0.158249
  },
  {
    "id": "BikePoints_404",
    "commonName": "Palace Gate, Kensington Gardens",
    "lat": 51.502042,
    "lon": -0.1844
  },
  {
    "id": "BikePoints_405",
    "commonName": "Gloucester Road Station, South Kensington",
    "lat": 51.494185,
    "lon": -0.18267
  },
  {
    "id": "BikePoints_408",
    "commonName": "Paddington Green Police Station, Paddington",
    "lat": 51.519943,
    "lon": -0.170704
  },
  {
    "id": "BikePoints_409",
    "commonName": "Strata, Elephant & Castle",
    "lat": 51.493146,
    "lon": -0.099828
  },
  {
    "id": "BikePoints_410",
    "commonName": "Edgware Road Station, Marylebone",
    "lat": 51.519968,
    "lon": -0.169774
  },
  {
    "id": "BikePoints_411",
    "commonName": "Walworth Road, Elephant & Castle",
    "lat": 51.493372,
    "lon": -0.09968
  },
  {
    "id": "BikePoints_412",
    "commonName": "Cleaver Street, Kennington",
    "lat": 51.488105,
    "lon": -0.110121
  },
  {
    "id": "BikePoints_419",
    "commonName": "Chelsea Bridge, Pimlico",
    "lat": 51.485821,
    "lon": -0.149004
  },
  {
    "id": "BikePoints_420",
    "commonName": "Southwark Station 1, Southwark",
    "lat": 51.504043,
    "lon": -0.105312
  },
  {
    "id": "BikePoints_421",
    "commonName": "Southwark Station 2, Southwark",
    "lat": 51.504044,
    "lon": -0.104778
  },
  {
    "id": "BikePoints_423",
    "commonName": "Eaton Square (South), Belgravia",
    "lat": 51.494561,
    "lon": -0.153933
  },
  {
    "id": "BikePoints_424",
    "commonName": "Ebury Bridge, Pimlico",
    "lat": 51.490491,
    "lon": -0.149186
  },
  {
    "id": "BikePoints_425",
    "commonName": "Harrington Square 2, Camden Town",
    "lat": 51.533379,
    "lon": -0.139159
  },
  {
    "id": "BikePoints_426",
    "commonName": "Vincent Street, Pimlico",
    "lat": 51.493072,
    "lon": -0.129925
  },
  {
    "id": "BikePoints_427",
    "commonName": "Cheapside, Bank",
    "lat": 51.51397,
    "lon": -0.09294
  },
  {
    "id": "BikePoints_428",
    "commonName": "Exhibition Road, Knightsbridge",
    "lat": 51.499917,
    "lon": -0.174554
  },
  {
    "id": "BikePoints_430",
    "commonName": "South Parade, Chelsea",
    "lat": 51.48902,
    "lon": -0.17524
  },
  {
    "id": "BikePoints_431",
    "commonName": "Crinan Street, King's Cross",
    "lat": 51.534474,
    "lon": -0.122203
  },
  {
    "id": "BikePoints_432",
    "commonName": "Exhibition Road Museums, South Kensington",
    "lat": 51.496957,
    "lon": -0.173894
  },
  {
    "id": "BikePoints_433",
    "commonName": "Wren Street, Holborn",
    "lat": 51.524564,
    "lon": -0.116279
  },
  {
    "id": "BikePoints_435",
    "commonName": "Kennington Station, Kennington",
    "lat": 51.488852,
    "lon": -0.105593
  },
  {
    "id": "BikePoints_436",
    "commonName": "Red Lion Street, Holborn",
    "lat": 51.51824,
    "lon": -0.11655
  },
  {
    "id": "BikePoints_437",
    "commonName": "Vauxhall Walk, Vauxhall",
    "lat": 51.488124,
    "lon": -0.120903
  },
  {
    "id": "BikePoints_439",
    "commonName": "Killick Street, King's Cross",
    "lat": 51.5338,
    "lon": -0.118677
  },
  {
    "id": "BikePoints_440",
    "commonName": "Kennington Oval, Oval",
    "lat": 51.483145,
    "lon": -0.113134
  },
  {
    "id": "BikePoints_441",
    "commonName": "Sail Street, Vauxhall",
    "lat": 51.495656,
    "lon": -0.114605
  },
  {
    "id": "BikePoints_442",
    "commonName": "Walmer Road, Avondale",
    "lat": 51.510101,
    "lon": -0.211358
  },
  {
    "id": "BikePoints_443",
    "commonName": "Philpot Street, Whitechapel",
    "lat": 51.515256,
    "lon": -0.058641
  },
  {
    "id": "BikePoints_444",
    "commonName": "Bethnal Green Garden, Bethnal Green",
    "lat": 51.52568,
    "lon": -0.055312
  },
  {
    "id": "BikePoints_445",
    "commonName": "Cheshire Street, Bethnal Green",
    "lat": 51.52388,
    "lon": -0.065076
  },
  {
    "id": "BikePoints_446",
    "commonName": "York Hall, Bethnal Green",
    "lat": 51.528936,
    "lon": -0.055894
  },
  {
    "id": "BikePoints_447",
    "commonName": "Jubilee Crescent, Cubitt Town",
    "lat": 51.493381,
    "lon": -0.007542
  },
  {
    "id": "BikePoints_448",
    "commonName": "Fisherman's Walk West, Canary Wharf",
    "lat": 51.50623,
    "lon": -0.02296
  },
  {
    "id": "BikePoints_449",
    "commonName": "Shadwell Station, Shadwell",
    "lat": 51.511088,
    "lon": -0.057159
  },
  {
    "id": "BikePoints_450",
    "commonName": "Jubilee Street, Stepney",
    "lat": 51.515975,
    "lon": -0.053177
  },
  {
    "id": "BikePoints_451",
    "commonName": "Hermitage Court, Wapping",
    "lat": 51.504719,
    "lon": -0.063531
  },
  {
    "id": "BikePoints_452",
    "commonName": "St. Katharine's Way, Tower",
    "lat": 51.505697,
    "lon": -0.070542
  },
  {
    "id": "BikePoints_453",
    "commonName": "Garnet Street, Shadwell",
    "lat": 51.508447,
    "lon": -0.055167
  },
  {
    "id": "BikePoints_454",
    "commonName": "Napier Avenue, Millwall",
    "lat": 51.487679,
    "lon": -0.021582
  },
  {
    "id": "BikePoints_455",
    "commonName": "East Ferry Road, Cubitt Town",
    "lat": 51.49447,
    "lon": -0.014409
  },
  {
    "id": "BikePoints_456",
    "commonName": "Parkway, Camden Town",
    "lat": 51.538071,
    "lon": -0.144664
  },
  {
    "id": "BikePoints_457",
    "commonName": "Castlehaven Road, Camden Town",
    "lat": 51.542138,
    "lon": -0.145393
  },
  {
    "id": "BikePoints_458",
    "commonName": "Wapping Lane, Wapping",
    "lat": 51.504749,
    "lon": -0.057544
  },
  {
    "id": "BikePoints_459",
    "commonName": "Gunmakers Lane, Old Ford",
    "lat": 51.535179,
    "lon": -0.03338
  },
  {
    "id": "BikePoints_460",
    "commonName": "Burdett Road, Mile End",
    "lat": 51.516196,
    "lon": -0.029138
  },
  {
    "id": "BikePoints_461",
    "commonName": "Aston Street, Stepney",
    "lat": 51.516,
    "lon": -0.038775
  },
  {
    "id": "BikePoints_462",
    "commonName": "Bonny Street, Camden Town",
    "lat": 51.541603,
    "lon": -0.138853
  },
  {
    "id": "BikePoints_463",
    "commonName": "Thurtle Road, Haggerston",
    "lat": 51.534776,
    "lon": -0.071881
  },
  {
    "id": "BikePoints_464",
    "commonName": "St. Mary & St. Michael Church, Stepney",
    "lat": 51.51417,
    "lon": -0.052099
  },
  {
    "id": "BikePoints_465",
    "commonName": "Pitfield Street North,Hoxton",
    "lat": 51.53558,
    "lon": -0.08249
  },
  {
    "id": "BikePoints_466",
    "commonName": "Whiston Road, Haggerston",
    "lat": 51.534464,
    "lon": -0.076341
  },
  {
    "id": "BikePoints_467",
    "commonName": "Southern Grove, Bow",
    "lat": 51.523538,
    "lon": -0.030556
  },
  {
    "id": "BikePoints_468",
    "commonName": "Cantrell Road, Bow",
    "lat": 51.521564,
    "lon": -0.022694
  },
  {
    "id": "BikePoints_469",
    "commonName": "Lindfield Street, Poplar",
    "lat": 51.513757,
    "lon": -0.020467
  },
  {
    "id": "BikePoints_470",
    "commonName": "Mostyn Grove, Bow",
    "lat": 51.530535,
    "lon": -0.025492
  },
  {
    "id": "BikePoints_471",
    "commonName": "Hewison Street, Old Ford",
    "lat": 51.533283,
    "lon": -0.028155
  },
  {
    "id": "BikePoints_472",
    "commonName": "Malmesbury Road, Bow",
    "lat": 51.529452,
    "lon": -0.027616
  },
  {
    "id": "BikePoints_473",
    "commonName": "Millharbour, Millwall",
    "lat": 51.496137,
    "lon": -0.019355
  },
  {
    "id": "BikePoints_475",
    "commonName": "Lightermans Road, Millwall",
    "lat": 51.499041,
    "lon": -0.020157
  },
  {
    "id": "BikePoints_476",
    "commonName": "Stebondale Street, Cubitt Town",
    "lat": 51.489096,
    "lon": -0.009205
  },
  {
    "id": "BikePoints_477",
    "commonName": "Spindrift Avenue, Millwall",
    "lat": 51.49109,
    "lon": -0.018716
  },
  {
    "id": "BikePoints_478",
    "commonName": "Stepney Green Station, Stepney",
    "lat": 51.521889,
    "lon": -0.04667
  },
  {
    "id": "BikePoints_479",
    "commonName": "Pott Street, Bethnal Green",
    "lat": 51.527152,
    "lon": -0.058005
  },
  {
    "id": "BikePoints_480",
    "commonName": "Flamborough Street, Limehouse",
    "lat": 51.512871,
    "lon": -0.038986
  },
  {
    "id": "BikePoints_481",
    "commonName": "Saunders Ness Road, Cubitt Town",
    "lat": 51.487129,
    "lon": -0.009001
  },
  {
    "id": "BikePoints_483",
    "commonName": "Albert Gardens, Stepney",
    "lat": 51.51328,
    "lon": -0.047784
  },
  {
    "id": "BikePoints_484",
    "commonName": "Bromley High Street, Bow",
    "lat": 51.528828,
    "lon": -0.013258
  },
  {
    "id": "BikePoints_485",
    "commonName": "Old Ford Road, Bethnal Green",
    "lat": 51.531127,
    "lon": -0.048017
  },
  {
    "id": "BikePoints_486",
    "commonName": "Granby Street, Shoreditch",
    "lat": 51.525645,
    "lon": -0.069543
  },
  {
    "id": "BikePoints_487",
    "commonName": "Canton Street, Poplar",
    "lat": 51.511811,
    "lon": -0.025626
  },
  {
    "id": "BikePoints_488",
    "commonName": "Reardon Street, Wapping",
    "lat": 51.506946,
    "lon": -0.058681
  },
  {
    "id": "BikePoints_489",
    "commonName": "Christian Street, Whitechapel",
    "lat": 51.513074,
    "lon": -0.064094
  },
  {
    "id": "BikePoints_490",
    "commonName": "Pennington Street, Wapping",
    "lat": 51.508622,
    "lon": -0.065006
  },
  {
    "id": "BikePoints_491",
    "commonName": "Queen Mary's, Mile End",
    "lat": 51.522507,
    "lon": -0.041378
  },
  {
    "id": "BikePoints_492",
    "commonName": "The Green Bridge, Mile End",
    "lat": 51.524677,
    "lon": -0.03562
  },
  {
    "id": "BikePoints_494",
    "commonName": "South Quay East, Canary Wharf",
    "lat": 51.50196,
    "lon": -0.016251
  },
  {
    "id": "BikePoints_495",
    "commonName": "Bow Church Station, Bow",
    "lat": 51.528169,
    "lon": -0.018703
  },
  {
    "id": "BikePoints_496",
    "commonName": "Devons Road, Bow",
    "lat": 51.52512,
    "lon": -0.015578
  },
  {
    "id": "BikePoints_497",
    "commonName": "Merchant Street, Bow",
    "lat": 51.526149,
    "lon": -0.027396
  },
  {
    "id": "BikePoints_498",
    "commonName": "Bow Road Station, Bow",
    "lat": 51.527058,
    "lon": -0.025296
  },
  {
    "id": "BikePoints_499",
    "commonName": "Furze Green, Bow",
    "lat": 51.519265,
    "lon": -0.021345
  },
  {
    "id": "BikePoints_500",
    "commonName": "Ansell House, Stepney",
    "lat": 51.519806,
    "lon": -0.055731
  },
  {
    "id": "BikePoints_502",
    "commonName": "Bonner Gate, Victoria Park",
    "lat": 51.53341,
    "lon": -0.049591
  },
  {
    "id": "BikePoints_503",
    "commonName": "Cleveland Way, Stepney",
    "lat": 51.520893,
    "lon": -0.051394
  },
  {
    "id": "BikePoints_504",
    "commonName": "St. John's Park, Cubitt Town",
    "lat": 51.496454,
    "lon": -0.009506
  },
  {
    "id": "BikePoints_505",
    "commonName": "Ackroyd Drive, Bow",
    "lat": 51.520398,
    "lon": -0.026768
  },
  {
    "id": "BikePoints_506",
    "commonName": "Bell Lane, Liverpool Street",
    "lat": 51.517475,
    "lon": -0.075855
  },
  {
    "id": "BikePoints_507",
    "commonName": "Clarkson Street, Bethnal Green",
    "lat": 51.528692,
    "lon": -0.059091
  },
  {
    "id": "BikePoints_508",
    "commonName": "Fournier Street, Whitechapel",
    "lat": 51.519362,
    "lon": -0.074431
  },
  {
    "id": "BikePoints_509",
    "commonName": "Fore Street, Guildhall",
    "lat": 51.517842,
    "lon": -0.090075
  },
  {
    "id": "BikePoints_510",
    "commonName": "Westferry DLR, Limehouse",
    "lat": 51.509303,
    "lon": -0.025996
  },
  {
    "id": "BikePoints_511",
    "commonName": "Sutton Street, Shadwell",
    "lat": 51.511066,
    "lon": -0.053558
  },
  {
    "id": "BikePoints_512",
    "commonName": "Pritchard's Road, Bethnal Green",
    "lat": 51.532091,
    "lon": -0.06142
  },
  {
    "id": "BikePoints_513",
    "commonName": "Watney Market, Stepney",
    "lat": 51.514222,
    "lon": -0.055656
  },
  {
    "id": "BikePoints_514",
    "commonName": "Portman Square, Marylebone",
    "lat": 51.516204,
    "lon": -0.155525
  },
  {
    "id": "BikePoints_515",
    "commonName": "Russell Gardens, Olympia",
    "lat": 51.500088,
    "lon": -0.211316
  },
  {
    "id": "BikePoints_516",
    "commonName": "Chrisp Street Market, Poplar",
    "lat": 51.5112,
    "lon": -0.014438
  },
  {
    "id": "BikePoints_517",
    "commonName": "Ford Road, Old Ford",
    "lat": 51.532513,
    "lon": -0.033085
  },
  {
    "id": "BikePoints_518",
    "commonName": "Antill Road, Mile End",
    "lat": 51.528224,
    "lon": -0.037471
  },
  {
    "id": "BikePoints_519",
    "commonName": "Teviot Street, Poplar",
    "lat": 51.518811,
    "lon": -0.011662
  },
  {
    "id": "BikePoints_520",
    "commonName": "Bancroft Road, Bethnal Green",
    "lat": 51.526041,
    "lon": -0.047218
  },
  {
    "id": "BikePoints_521",
    "commonName": "Driffield Road, Old Ford",
    "lat": 51.534137,
    "lon": -0.037366
  },
  {
    "id": "BikePoints_522",
    "commonName": "Clinton Road, Mile End",
    "lat": 51.525941,
    "lon": -0.036017
  },
  {
    "id": "BikePoints_523",
    "commonName": "Langdon Park, Poplar",
    "lat": 51.51549,
    "lon": -0.013475
  },
  {
    "id": "BikePoints_524",
    "commonName": "Lancaster Gate , Bayswater",
    "lat": 51.511654,
    "lon": -0.179668
  },
  {
    "id": "BikePoints_526",
    "commonName": "Lancaster Drive, Blackwall",
    "lat": 51.503143,
    "lon": -0.008428
  },
  {
    "id": "BikePoints_527",
    "commonName": "Hansard Mews, Holland Park",
    "lat": 51.503802,
    "lon": -0.215808
  },
  {
    "id": "BikePoints_528",
    "commonName": "Clarges Street, Mayfair",
    "lat": 51.507326,
    "lon": -0.145827
  },
  {
    "id": "BikePoints_529",
    "commonName": "Manresa Road, Chelsea",
    "lat": 51.486892,
    "lon": -0.170983
  },
  {
    "id": "BikePoints_530",
    "commonName": "Newby Place, Poplar",
    "lat": 51.508896,
    "lon": -0.012413
  },
  {
    "id": "BikePoints_531",
    "commonName": "Twig Folly Bridge, Mile End",
    "lat": 51.530326,
    "lon": -0.042744
  },
  {
    "id": "BikePoints_532",
    "commonName": "Jubilee Plaza, Canary Wharf",
    "lat": 51.50357,
    "lon": -0.020068
  },
  {
    "id": "BikePoints_533",
    "commonName": "Wellington Row, Bethnal Green",
    "lat": 51.528222,
    "lon": -0.069743
  },
  {
    "id": "BikePoints_534",
    "commonName": "Goldsmith's Row, Haggerston",
    "lat": 51.531864,
    "lon": -0.066035
  },
  {
    "id": "BikePoints_535",
    "commonName": "Gloucester Avenue, Camden Town",
    "lat": 51.537349,
    "lon": -0.147154
  },
  {
    "id": "BikePoints_536",
    "commonName": "Queensbridge Road, Haggerston",
    "lat": 51.53385,
    "lon": -0.06992
  },
  {
    "id": "BikePoints_537",
    "commonName": "Old Montague Street, Whitechapel",
    "lat": 51.51793,
    "lon": -0.067937
  },
  {
    "id": "BikePoints_538",
    "commonName": "Naval Row, Blackwall",
    "lat": 51.508981,
    "lon": -0.00699
  },
  {
    "id": "BikePoints_540",
    "commonName": "Albany Street, The Regent's Park",
    "lat": 51.528302,
    "lon": -0.144466
  },
  {
    "id": "BikePoints_541",
    "commonName": "Green Park Station, Mayfair",
    "lat": 51.506613,
    "lon": -0.142844
  },
  {
    "id": "BikePoints_542",
    "commonName": "Salmon Lane, Limehouse",
    "lat": 51.514115,
    "lon": -0.033828
  },
  {
    "id": "BikePoints_543",
    "commonName": "Lansdowne Walk, Ladbroke Grove",
    "lat": 51.509591,
    "lon": -0.204666
  },
  {
    "id": "BikePoints_544",
    "commonName": "Percival Street, Finsbury",
    "lat": 51.526153,
    "lon": -0.102208
  },
  {
    "id": "BikePoints_545",
    "commonName": "Arlington Road, Camden Town",
    "lat": 51.539957,
    "lon": -0.145246
  },
  {
    "id": "BikePoints_546",
    "commonName": "New Fetter Lane, Holborn",
    "lat": 51.517428,
    "lon": -0.107987
  },
  {
    "id": "BikePoints_547",
    "commonName": "East India DLR, Blackwall",
    "lat": 51.509474,
    "lon": -0.002275
  },
  {
    "id": "BikePoints_548",
    "commonName": "Westminster Bridge Road, Elephant & Castle",
    "lat": 51.498386,
    "lon": -0.107913
  },
  {
    "id": "BikePoints_549",
    "commonName": "Gaywood  Street, Elephant & Castle",
    "lat": 51.49605,
    "lon": -0.104193
  },
  {
    "id": "BikePoints_550",
    "commonName": "Harford Street, Mile End",
    "lat": 51.521564,
    "lon": -0.039264
  },
  {
    "id": "BikePoints_551",
    "commonName": "Import Dock, Canary Wharf",
    "lat": 51.505772,
    "lon": -0.01646
  },
  {
    "id": "BikePoints_552",
    "commonName": "Watney Street, Shadwell",
    "lat": 51.511542,
    "lon": -0.056667
  },
  {
    "id": "BikePoints_553",
    "commonName": "Regent's Row , Haggerston",
    "lat": 51.535678,
    "lon": -0.062546
  },
  {
    "id": "BikePoints_554",
    "commonName": "Aberfeldy Street, Poplar",
    "lat": 51.513548,
    "lon": -0.005659
  },
  {
    "id": "BikePoints_556",
    "commonName": "Heron Quays DLR, Canary Wharf",
    "lat": 51.502661,
    "lon": -0.021596
  },
  {
    "id": "BikePoints_557",
    "commonName": "King Edward Street, St Pauls",
    "lat": 51.51601,
    "lon": -0.0985
  },
  {
    "id": "BikePoints_558",
    "commonName": "Page Street, Westminster",
    "lat": 51.493978,
    "lon": -0.127554
  },
  {
    "id": "BikePoints_559",
    "commonName": "Abbotsbury Road, Holland Park",
    "lat": 51.501391,
    "lon": -0.205991
  },
  {
    "id": "BikePoints_560",
    "commonName": "Ladbroke Grove Central, Ladbroke Grove",
    "lat": 51.511624,
    "lon": -0.205921
  },
  {
    "id": "BikePoints_561",
    "commonName": "Rectory Square, Stepney",
    "lat": 51.518369,
    "lon": -0.043371
  },
  {
    "id": "BikePoints_562",
    "commonName": "Bury Place, Holborn",
    "lat": 51.51746,
    "lon": -0.12335
  },
  {
    "id": "BikePoints_563",
    "commonName": "Preston's Road, Cubitt Town",
    "lat": 51.499286,
    "lon": -0.009152
  },
  {
    "id": "BikePoints_564",
    "commonName": "Somerset House, Strand",
    "lat": 51.509943,
    "lon": -0.117619
  },
  {
    "id": "BikePoints_565",
    "commonName": "Selby Street, Whitechapel",
    "lat": 51.521905,
    "lon": -0.063386
  },
  {
    "id": "BikePoints_566",
    "commonName": "Westfield Ariel Way, White City",
    "lat": 51.509158,
    "lon": -0.224103
  },
  {
    "id": "BikePoints_568",
    "commonName": "Bishop's Bridge Road West, Bayswater",
    "lat": 51.51616,
    "lon": -0.18697
  },
  {
    "id": "BikePoints_569",
    "commonName": "Pitfield Street Central, Hoxton",
    "lat": 51.53213,
    "lon": -0.08299
  },
  {
    "id": "BikePoints_570",
    "commonName": "Upper Bank Street, Canary Wharf",
    "lat": 51.503083,
    "lon": -0.017676
  },
  {
    "id": "BikePoints_571",
    "commonName": "Westfield Southern Terrace ,Shepherd's Bush",
    "lat": 51.506256,
    "lon": -0.218337
  },
  {
    "id": "BikePoints_572",
    "commonName": "Greenland Road, Camden Town",
    "lat": 51.539099,
    "lon": -0.141728
  },
  {
    "id": "BikePoints_573",
    "commonName": "Limerston Street, West Chelsea",
    "lat": 51.485587,
    "lon": -0.18119
  },
  {
    "id": "BikePoints_574",
    "commonName": "Eagle Wharf Road, Hoxton",
    "lat": 51.53356,
    "lon": -0.09315
  },
  {
    "id": "BikePoints_576",
    "commonName": "Alpha Grove, Millwall",
    "lat": 51.497304,
    "lon": -0.022793
  },
  {
    "id": "BikePoints_577",
    "commonName": "Globe Town Market, Bethnal Green",
    "lat": 51.528869,
    "lon": -0.047548
  },
  {
    "id": "BikePoints_578",
    "commonName": "Hollybush Gardens, Bethnal Green",
    "lat": 51.527607,
    "lon": -0.057133
  },
  {
    "id": "BikePoints_579",
    "commonName": "Queen Street 2, Bank",
    "lat": 51.511246,
    "lon": -0.093051
  },
  {
    "id": "BikePoints_580",
    "commonName": "Doddington Grove, Kennington",
    "lat": 51.486929,
    "lon": -0.102996
  },
  {
    "id": "BikePoints_581",
    "commonName": "New Cavendish Street, Marylebone",
    "lat": 51.519167,
    "lon": -0.147983
  },
  {
    "id": "BikePoints_583",
    "commonName": "Abingdon Green, Westminster",
    "lat": 51.497622,
    "lon": -0.125978
  },
  {
    "id": "BikePoints_584",
    "commonName": "Ilchester Gardens, Bayswater",
    "lat": 51.51244,
    "lon": -0.19096
  },
  {
    "id": "BikePoints_586",
    "commonName": "Mudchute DLR, Cubitt Town",
    "lat": 51.490645,
    "lon": -0.014582
  },
  {
    "id": "BikePoints_587",
    "commonName": "Monument Street, Monument",
    "lat": 51.50964,
    "lon": -0.08497
  },
  {
    "id": "BikePoints_588",
    "commonName": "Hoxton Street, Hoxton",
    "lat": 51.52959,
    "lon": -0.0801
  },
  {
    "id": "BikePoints_589",
    "commonName": "Drayton Gardens, West Chelsea",
    "lat": 51.487196,
    "lon": -0.179369
  },
  {
    "id": "BikePoints_590",
    "commonName": "Greenberry Street, St.John's Wood",
    "lat": 51.53256,
    "lon": -0.16862
  },
  {
    "id": "BikePoints_592",
    "commonName": "Bishop's Bridge Road East, Bayswater",
    "lat": 51.5171,
    "lon": -0.18377
  },
  {
    "id": "BikePoints_593",
    "commonName": "Northdown Street, King's Cross",
    "lat": 51.531066,
    "lon": -0.11934
  },
  {
    "id": "BikePoints_594",
    "commonName": "Kingsway Southbound, Strand",
    "lat": 51.513875,
    "lon": -0.117774
  },
  {
    "id": "BikePoints_595",
    "commonName": "Hammersmith Road, Hammersmith",
    "lat": 51.493267,
    "lon": -0.21985
  },
  {
    "id": "BikePoints_596",
    "commonName": "Parson's Green , Parson's Green",
    "lat": 51.472817,
    "lon": -0.199783
  },
  {
    "id": "BikePoints_597",
    "commonName": "Fulham Park Road, Fulham",
    "lat": 51.473471,
    "lon": -0.20782
  },
  {
    "id": "BikePoints_598",
    "commonName": "Southerton Road, Hammersmith",
    "lat": 51.494499,
    "lon": -0.228188
  },
  {
    "id": "BikePoints_599",
    "commonName": "Manbre Road, Hammersmith",
    "lat": 51.485743,
    "lon": -0.223616
  },
  {
    "id": "BikePoints_600",
    "commonName": "South Lambeth Road, Vauxhall",
    "lat": 51.481747,
    "lon": -0.124642
  },
  {
    "id": "BikePoints_601",
    "commonName": "BBC White City, White City",
    "lat": 51.514767,
    "lon": -0.225787
  },
  {
    "id": "BikePoints_602",
    "commonName": "Union Grove, Wandsworth Road",
    "lat": 51.472993,
    "lon": -0.133972
  },
  {
    "id": "BikePoints_603",
    "commonName": "Caldwell Street, Stockwell",
    "lat": 51.477839,
    "lon": -0.116493
  },
  {
    "id": "BikePoints_604",
    "commonName": "St Martins Close, Camden Town",
    "lat": 51.538792,
    "lon": -0.138535
  },
  {
    "id": "BikePoints_605",
    "commonName": "Seymour Place, Marylebone",
    "lat": 51.520331,
    "lon": -0.163667
  },
  {
    "id": "BikePoints_606",
    "commonName": "Addison Road, Holland Park",
    "lat": 51.504199,
    "lon": -0.210941
  },
  {
    "id": "BikePoints_607",
    "commonName": "Putney Bridge Station, Fulham",
    "lat": 51.468814,
    "lon": -0.210279
  },
  {
    "id": "BikePoints_608",
    "commonName": "Colet Gardens, Hammersmith",
    "lat": 51.491093,
    "lon": -0.216493
  },
  {
    "id": "BikePoints_609",
    "commonName": "Sugden Road, Clapham",
    "lat": 51.465123,
    "lon": -0.157788
  },
  {
    "id": "BikePoints_610",
    "commonName": "Danvers Street, West Chelsea",
    "lat": 51.482567,
    "lon": -0.172078
  },
  {
    "id": "BikePoints_611",
    "commonName": "Princedale Road , Holland Park",
    "lat": 51.506465,
    "lon": -0.208486
  },
  {
    "id": "BikePoints_612",
    "commonName": "Wandsworth Rd, Isley Court, Wandsworth Road",
    "lat": 51.469259,
    "lon": -0.141812
  },
  {
    "id": "BikePoints_613",
    "commonName": "Woodstock Grove, Shepherd's Bush",
    "lat": 51.504038,
    "lon": -0.2174
  },
  {
    "id": "BikePoints_614",
    "commonName": "Bradmead, Battersea Park",
    "lat": 51.478172,
    "lon": -0.14469
  },
  {
    "id": "BikePoints_615",
    "commonName": "Finlay Street, Fulham",
    "lat": 51.476885,
    "lon": -0.215895
  },
  {
    "id": "BikePoints_616",
    "commonName": "Aintree Street, Fulham",
    "lat": 51.481021,
    "lon": -0.209973
  },
  {
    "id": "BikePoints_617",
    "commonName": "Elysium Place, Fulham",
    "lat": 51.471079,
    "lon": -0.207842
  },
  {
    "id": "BikePoints_618",
    "commonName": "Eel Brook Common, Walham Green",
    "lat": 51.476259,
    "lon": -0.193254
  },
  {
    "id": "BikePoints_619",
    "commonName": "Irene Road, Parsons Green",
    "lat": 51.473763,
    "lon": -0.19701
  },
  {
    "id": "BikePoints_620",
    "commonName": "Surrey Lane, Battersea",
    "lat": 51.47518,
    "lon": -0.16716
  },
  {
    "id": "BikePoints_621",
    "commonName": "Wandsworth Town Station, Wandsworth",
    "lat": 51.460864,
    "lon": -0.187427
  },
  {
    "id": "BikePoints_622",
    "commonName": "Lansdowne Road, Ladbroke Grove",
    "lat": 51.507481,
    "lon": -0.205535
  },
  {
    "id": "BikePoints_623",
    "commonName": "Nantes Close, Wandsworth",
    "lat": 51.46193,
    "lon": -0.180791
  },
  {
    "id": "BikePoints_624",
    "commonName": "Courland Grove, Wandsworth Road",
    "lat": 51.472918,
    "lon": -0.132102
  },
  {
    "id": "BikePoints_625",
    "commonName": "Queen's Circus, Battersea Park",
    "lat": 51.477619,
    "lon": -0.149551
  },
  {
    "id": "BikePoints_626",
    "commonName": "Normand Park, West Kensington",
    "lat": 51.484386,
    "lon": -0.204815
  },
  {
    "id": "BikePoints_627",
    "commonName": "Holden Street, Battersea",
    "lat": 51.46879,
    "lon": -0.15823
  },
  {
    "id": "BikePoints_628",
    "commonName": "William Morris Way, Sands End",
    "lat": 51.468819,
    "lon": -0.184318
  },
  {
    "id": "BikePoints_629",
    "commonName": "Morie Street, Wandsworth",
    "lat": 51.459953,
    "lon": -0.190184
  },
  {
    "id": "BikePoints_630",
    "commonName": "Clarence Walk, Stockwell",
    "lat": 51.470732,
    "lon": -0.126994
  },
  {
    "id": "BikePoints_631",
    "commonName": "Battersea Park Road, Nine Elms",
    "lat": 51.479501,
    "lon": -0.14177
  },
  {
    "id": "BikePoints_632",
    "commonName": "Sheepcote Lane, Battersea",
    "lat": 51.470538,
    "lon": -0.163041
  },
  {
    "id": "BikePoints_633",
    "commonName": "Vereker Road, West Kensington",
    "lat": 51.489591,
    "lon": -0.209378
  },
  {
    "id": "BikePoints_634",
    "commonName": "Brook Green South, Brook Green",
    "lat": 51.494347,
    "lon": -0.215804
  },
  {
    "id": "BikePoints_635",
    "commonName": "Greyhound Road, Hammersmith",
    "lat": 51.486062,
    "lon": -0.214428
  },
  {
    "id": "BikePoints_636",
    "commonName": "South Park, Sands End",
    "lat": 51.467064,
    "lon": -0.193502
  },
  {
    "id": "BikePoints_637",
    "commonName": "Spencer Park, Wandsworth Common",
    "lat": 51.45787,
    "lon": -0.174691
  },
  {
    "id": "BikePoints_638",
    "commonName": "Falcon Road, Clapham Junction",
    "lat": 51.466633,
    "lon": -0.169821
  },
  {
    "id": "BikePoints_639",
    "commonName": "Coomer Place, West Kensington",
    "lat": 51.48357,
    "lon": -0.202038
  },
  {
    "id": "BikePoints_640",
    "commonName": "Silverthorne Road, Battersea",
    "lat": 51.472865,
    "lon": -0.148059
  },
  {
    "id": "BikePoints_641",
    "commonName": "Archbishop's Park, Waterloo",
    "lat": 51.498241,
    "lon": -0.117495
  },
  {
    "id": "BikePoints_642",
    "commonName": "Fawcett Close, Battersea",
    "lat": 51.469161,
    "lon": -0.174485
  },
  {
    "id": "BikePoints_643",
    "commonName": "All Saints' Road, Portobello",
    "lat": 51.519042,
    "lon": -0.204764
  },
  {
    "id": "BikePoints_644",
    "commonName": "Rainville Road, Hammersmith",
    "lat": 51.483732,
    "lon": -0.223852
  },
  {
    "id": "BikePoints_645",
    "commonName": "Great Suffolk Street, The Borough",
    "lat": 51.501732,
    "lon": -0.100292
  },
  {
    "id": "BikePoints_646",
    "commonName": "Buckingham Gate, Westminster",
    "lat": 51.498865,
    "lon": -0.137424
  },
  {
    "id": "BikePoints_647",
    "commonName": "Richmond Way, Shepherd's Bush",
    "lat": 51.500353,
    "lon": -0.217515
  },
  {
    "id": "BikePoints_648",
    "commonName": "Peterborough Road, Sands End",
    "lat": 51.46904,
    "lon": -0.196274
  },
  {
    "id": "BikePoints_649",
    "commonName": "World's End Place, West Chelsea",
    "lat": 51.481805,
    "lon": -0.180274
  },
  {
    "id": "BikePoints_650",
    "commonName": "St. Mark's Road, North Kensington",
    "lat": 51.51687,
    "lon": -0.213872
  },
  {
    "id": "BikePoints_651",
    "commonName": "Thorndike Close, West Chelsea",
    "lat": 51.480898,
    "lon": -0.183853
  },
  {
    "id": "BikePoints_652",
    "commonName": "Evesham Street, Avondale",
    "lat": 51.511486,
    "lon": -0.21819
  },
  {
    "id": "BikePoints_653",
    "commonName": "Simpson Street, Clapham Junction",
    "lat": 51.470847,
    "lon": -0.170703
  },
  {
    "id": "BikePoints_654",
    "commonName": "Ashmole Estate, Oval",
    "lat": 51.482678,
    "lon": -0.117661
  },
  {
    "id": "BikePoints_655",
    "commonName": "Crabtree Lane, Fulham",
    "lat": 51.482944,
    "lon": -0.219346
  },
  {
    "id": "BikePoints_656",
    "commonName": "Broomhouse Lane, Parsons Green",
    "lat": 51.468418,
    "lon": -0.199135
  },
  {
    "id": "BikePoints_657",
    "commonName": "Blythe Road West, Shepherd's Bush",
    "lat": 51.49968,
    "lon": -0.221791
  },
  {
    "id": "BikePoints_658",
    "commonName": "Ethelburga Estate, Battersea Park",
    "lat": 51.477292,
    "lon": -0.164786
  },
  {
    "id": "BikePoints_660",
    "commonName": "West Kensington Station, West Kensington",
    "lat": 51.49087,
    "lon": -0.206029
  },
  {
    "id": "BikePoints_661",
    "commonName": "All Saints Church, Portobello",
    "lat": 51.51632,
    "lon": -0.202608
  },
  {
    "id": "BikePoints_662",
    "commonName": "Phene Street, Chelsea",
    "lat": 51.484984,
    "lon": -0.167919
  },
  {
    "id": "BikePoints_663",
    "commonName": "Clarendon Road, Avondale",
    "lat": 51.51323,
    "lon": -0.211593
  },
  {
    "id": "BikePoints_664",
    "commonName": "Austin Road, Battersea Park",
    "lat": 51.474376,
    "lon": -0.155442
  },
  {
    "id": "BikePoints_665",
    "commonName": "Smugglers Way, Wandsworth",
    "lat": 51.461083,
    "lon": -0.191722
  },
  {
    "id": "BikePoints_666",
    "commonName": "Olympia Way, Olympia",
    "lat": 51.4961,
    "lon": -0.208158
  },
  {
    "id": "BikePoints_667",
    "commonName": "Shepherd's Bush Road North, Shepherd's Bush",
    "lat": 51.501594,
    "lon": -0.222293
  },
  {
    "id": "BikePoints_668",
    "commonName": "Ravenscourt Park Station, Hammersmith",
    "lat": 51.494223,
    "lon": -0.236769
  },
  {
    "id": "BikePoints_669",
    "commonName": "Teversham Lane, Stockwell",
    "lat": 51.476149,
    "lon": -0.123258
  },
  {
    "id": "BikePoints_670",
    "commonName": "Ashley Crescent, Battersea",
    "lat": 51.467185,
    "lon": -0.152248
  },
  {
    "id": "BikePoints_671",
    "commonName": "Parsons Green Station, Parsons Green",
    "lat": 51.475089,
    "lon": -0.201968
  },
  {
    "id": "BikePoints_673",
    "commonName": "Hibbert Street, Battersea",
    "lat": 51.46517,
    "lon": -0.180389
  },
  {
    "id": "BikePoints_674",
    "commonName": "Carnegie Street, King's Cross",
    "lat": 51.535467,
    "lon": -0.116191
  },
  {
    "id": "BikePoints_675",
    "commonName": "Usk Road, Clapham Junction",
    "lat": 51.463489,
    "lon": -0.182126
  },
  {
    "id": "BikePoints_676",
    "commonName": "Hartington Road, Stockwell",
    "lat": 51.47787,
    "lon": -0.126874
  },
  {
    "id": "BikePoints_677",
    "commonName": "Heath Road, Battersea",
    "lat": 51.468669,
    "lon": -0.146544
  },
  {
    "id": "BikePoints_678",
    "commonName": "Esmond Street, Putney",
    "lat": 51.462312,
    "lon": -0.211468
  },
  {
    "id": "BikePoints_679",
    "commonName": "Orbel Street, Battersea",
    "lat": 51.474535,
    "lon": -0.17021
  },
  {
    "id": "BikePoints_680",
    "commonName": "Westbridge Road, Battersea",
    "lat": 51.477684,
    "lon": -0.170329
  },
  {
    "id": "BikePoints_681",
    "commonName": "Bishop's Avenue, Fulham",
    "lat": 51.473036,
    "lon": -0.214749
  },
  {
    "id": "BikePoints_682",
    "commonName": "Crisp Road, Hammersmith",
    "lat": 51.488108,
    "lon": -0.226606
  },
  {
    "id": "BikePoints_683",
    "commonName": "Dorothy Road, Clapham Junction",
    "lat": 51.465064,
    "lon": -0.16375
  },
  {
    "id": "BikePoints_684",
    "commonName": "Neville Gill Close, Wandsworth",
    "lat": 51.454752,
    "lon": -0.195197
  },
  {
    "id": "BikePoints_685",
    "commonName": "Osiers Road, Wandsworth",
    "lat": 51.46067,
    "lon": -0.198735
  },
  {
    "id": "BikePoints_686",
    "commonName": "Beryl Road, Hammersmith",
    "lat": 51.488144,
    "lon": -0.222456
  },
  {
    "id": "BikePoints_687",
    "commonName": "Maclise Road, Olympia",
    "lat": 51.497608,
    "lon": -0.211455
  },
  {
    "id": "BikePoints_688",
    "commonName": "Northfields, Wandsworth",
    "lat": 51.460951,
    "lon": -0.200667
  },
  {
    "id": "BikePoints_689",
    "commonName": "Spanish Road, Clapham Junction",
    "lat": 51.459225,
    "lon": -0.180884
  },
  {
    "id": "BikePoints_690",
    "commonName": "Stanley Grove, Battersea",
    "lat": 51.470475,
    "lon": -0.15213
  },
  {
    "id": "BikePoints_691",
    "commonName": "Erin Close, Walham Green",
    "lat": 51.479463,
    "lon": -0.195777
  },
  {
    "id": "BikePoints_692",
    "commonName": "Cadogan Close, Victoria Park",
    "lat": 51.542118,
    "lon": -0.028941
  },
  {
    "id": "BikePoints_693",
    "commonName": "Felsham Road, Putney",
    "lat": 51.464786,
    "lon": -0.215618
  },
  {
    "id": "BikePoints_694",
    "commonName": "Putney Rail Station, Putney",
    "lat": 51.460717,
    "lon": -0.216526
  },
  {
    "id": "BikePoints_695",
    "commonName": "Islington Green, Angel",
    "lat": 51.536384,
    "lon": -0.102757
  },
  {
    "id": "BikePoints_696",
    "commonName": "Charing Cross Hospital, Hammersmith",
    "lat": 51.487285,
    "lon": -0.217995
  },
  {
    "id": "BikePoints_697",
    "commonName": "Charlotte Terrace, Angel",
    "lat": 51.536392,
    "lon": -0.112721
  },
  {
    "id": "BikePoints_698",
    "commonName": "Shoreditch Court, Haggerston",
    "lat": 51.539083,
    "lon": -0.070329
  },
  {
    "id": "BikePoints_699",
    "commonName": "Belford House, Haggerston",
    "lat": 51.536654,
    "lon": -0.07023
  },
  {
    "id": "BikePoints_700",
    "commonName": "Battersea Church Road, Battersea",
    "lat": 51.476964,
    "lon": -0.174347
  },
  {
    "id": "BikePoints_701",
    "commonName": "Vicarage Crescent, Battersea",
    "lat": 51.472876,
    "lon": -0.176267
  },
  {
    "id": "BikePoints_702",
    "commonName": "Durant Street, Bethnal Green",
    "lat": 51.528681,
    "lon": -0.06555
  },
  {
    "id": "BikePoints_703",
    "commonName": "St. Bride Street, Holborn",
    "lat": 51.515059,
    "lon": -0.105344
  },
  {
    "id": "BikePoints_704",
    "commonName": "Mexfield Road, East Putney",
    "lat": 51.45682,
    "lon": -0.202802
  },
  {
    "id": "BikePoints_705",
    "commonName": "Upper Richmond Road, Putney",
    "lat": 51.459715,
    "lon": -0.212145
  },
  {
    "id": "BikePoints_706",
    "commonName": "Snowsfields, London Bridge",
    "lat": 51.502153,
    "lon": -0.083632
  },
  {
    "id": "BikePoints_707",
    "commonName": "Barons Court Station, West Kensington",
    "lat": 51.490217,
    "lon": -0.215087
  },
  {
    "id": "BikePoints_708",
    "commonName": "Disraeli Road, Putney",
    "lat": 51.46161,
    "lon": -0.216145
  },
  {
    "id": "BikePoints_709",
    "commonName": "Montserrat Road , Putney",
    "lat": 51.463211,
    "lon": -0.21555
  },
  {
    "id": "BikePoints_710",
    "commonName": "Albert Bridge Road, Battersea Park",
    "lat": 51.474392,
    "lon": -0.163347
  },
  {
    "id": "BikePoints_711",
    "commonName": "Everington Street, Fulham",
    "lat": 51.483356,
    "lon": -0.216305
  },
  {
    "id": "BikePoints_712",
    "commonName": "Mile End Stadium, Mile End",
    "lat": 51.518541,
    "lon": -0.034903
  },
  {
    "id": "BikePoints_713",
    "commonName": "Hawley Crescent, Camden Town",
    "lat": 51.541007,
    "lon": -0.14326
  },
  {
    "id": "BikePoints_714",
    "commonName": "Stewart's Road, Wandsworth Road",
    "lat": 51.473116,
    "lon": -0.137235
  },
  {
    "id": "BikePoints_715",
    "commonName": "Aylward Street, Stepney",
    "lat": 51.51563,
    "lon": -0.049067
  },
  {
    "id": "BikePoints_716",
    "commonName": "Stainsby Road , Poplar",
    "lat": 51.515427,
    "lon": -0.023565
  },
  {
    "id": "BikePoints_717",
    "commonName": "Dunston Road , Haggerston",
    "lat": 51.536585,
    "lon": -0.075885
  },
  {
    "id": "BikePoints_718",
    "commonName": "Ada Street, Hackney Central",
    "lat": 51.535716,
    "lon": -0.060291
  },
  {
    "id": "BikePoints_719",
    "commonName": "Victoria Park Road, Hackney Central",
    "lat": 51.536424,
    "lon": -0.054162
  },
  {
    "id": "BikePoints_720",
    "commonName": "Star Road, West Kensington",
    "lat": 51.487244,
    "lon": -0.205279
  },
  {
    "id": "BikePoints_721",
    "commonName": "Wendon Street, Old Ford",
    "lat": 51.536039,
    "lon": -0.026262
  },
  {
    "id": "BikePoints_722",
    "commonName": "Finnis Street, Bethnal Green",
    "lat": 51.524583,
    "lon": -0.058631
  },
  {
    "id": "BikePoints_723",
    "commonName": "Stephendale Road, Sands End",
    "lat": 51.46822,
    "lon": -0.190346
  },
  {
    "id": "BikePoints_724",
    "commonName": "Alma Road, Wandsworth",
    "lat": 51.457991,
    "lon": -0.184806
  },
  {
    "id": "BikePoints_725",
    "commonName": "Walworth Square, Walworth",
    "lat": 51.491327,
    "lon": -0.096518
  },
  {
    "id": "BikePoints_726",
    "commonName": "Alfreda Street, Battersea Park",
    "lat": 51.47505,
    "lon": -0.150908
  },
  {
    "id": "BikePoints_727",
    "commonName": "Chesilton Road, Fulham",
    "lat": 51.475698,
    "lon": -0.205876
  },
  {
    "id": "BikePoints_728",
    "commonName": "Putney Bridge Road, East Putney",
    "lat": 51.461999,
    "lon": -0.20624
  },
  {
    "id": "BikePoints_729",
    "commonName": "St. Peter's Terrace, Fulham",
    "lat": 51.478939,
    "lon": -0.208485
  },
  {
    "id": "BikePoints_730",
    "commonName": "Bridge Avenue, Hammersmith",
    "lat": 51.492084,
    "lon": -0.229116
  },
  {
    "id": "BikePoints_731",
    "commonName": "Michael Road, Walham Green",
    "lat": 51.477276,
    "lon": -0.18921
  },
  {
    "id": "BikePoints_732",
    "commonName": "Duke Street Hill, London Bridge",
    "lat": 51.506304,
    "lon": -0.087262
  },
  {
    "id": "BikePoints_733",
    "commonName": "Park Lane, Mayfair",
    "lat": 51.505426,
    "lon": -0.150817
  },
  {
    "id": "BikePoints_734",
    "commonName": "Plough Terrace, Clapham Junction",
    "lat": 51.462305,
    "lon": -0.175407
  },
  {
    "id": "BikePoints_735",
    "commonName": "Grant Road East, Clapham Junction",
    "lat": 51.464894,
    "lon": -0.173029
  },
  {
    "id": "BikePoints_736",
    "commonName": "Queensdale Road, Shepherd's Bush",
    "lat": 51.50659,
    "lon": -0.216104
  },
  {
    "id": "BikePoints_737",
    "commonName": "Fulham Broadway, Walham Green",
    "lat": 51.479932,
    "lon": -0.194116
  },
  {
    "id": "BikePoints_738",
    "commonName": "Imperial Road, Sands End",
    "lat": 51.475142,
    "lon": -0.187278
  },
  {
    "id": "BikePoints_739",
    "commonName": "Hortensia Road, West Brompton",
    "lat": 51.481765,
    "lon": -0.185273
  },
  {
    "id": "BikePoints_740",
    "commonName": "Sirdar Road, Avondale",
    "lat": 51.510928,
    "lon": -0.214594
  },
  {
    "id": "BikePoints_741",
    "commonName": "Freston Road, Avondale",
    "lat": 51.512981,
    "lon": -0.219486
  },
  {
    "id": "BikePoints_742",
    "commonName": "Blenheim Crescent, Ladbroke Grove",
    "lat": 51.515108,
    "lon": -0.208565
  },
  {
    "id": "BikePoints_743",
    "commonName": "Oxford Road, Putney",
    "lat": 51.460792,
    "lon": -0.212607
  },
  {
    "id": "BikePoints_744",
    "commonName": "Ingrave Street, Clapham Junction",
    "lat": 51.467454,
    "lon": -0.172293
  },
  {
    "id": "BikePoints_745",
    "commonName": "Upcerne Road, West Chelsea",
    "lat": 51.478169,
    "lon": -0.182435
  },
  {
    "id": "BikePoints_746",
    "commonName": "Lots Road, West Chelsea",
    "lat": 51.479573,
    "lon": -0.179038
  },
  {
    "id": "BikePoints_747",
    "commonName": "Ormonde Gate, Chelsea",
    "lat": 51.487964,
    "lon": -0.161765
  },
  {
    "id": "BikePoints_748",
    "commonName": "Hertford Road, De Beauvoir Town",
    "lat": 51.537277,
    "lon": -0.079201
  },
  {
    "id": "BikePoints_749",
    "commonName": "Haggerston Road, Haggerston",
    "lat": 51.539328,
    "lon": -0.074284
  },
  {
    "id": "BikePoints_750",
    "commonName": "Culvert Road, Battersea",
    "lat": 51.471095,
    "lon": -0.15785
  },
  {
    "id": "BikePoints_751",
    "commonName": "Newton Street, Covent Garden",
    "lat": 51.516128,
    "lon": -0.120909
  },
  {
    "id": "BikePoints_754",
    "commonName": "Grenfell Road, Avondale",
    "lat": 51.5129,
    "lon": -0.214762
  },
  {
    "id": "BikePoints_755",
    "commonName": "The Vale, Chelsea",
    "lat": 51.485121,
    "lon": -0.174971
  },
  {
    "id": "BikePoints_756",
    "commonName": "Prince of Wales Drive, Battersea Park",
    "lat": 51.475153,
    "lon": -0.159169
  },
  {
    "id": "BikePoints_757",
    "commonName": "Harcourt Terrace, West Brompton",
    "lat": 51.487958,
    "lon": -0.187404
  },
  {
    "id": "BikePoints_758",
    "commonName": "Westbourne Park Road, Portobello",
    "lat": 51.51787,
    "lon": -0.201005
  },
  {
    "id": "BikePoints_759",
    "commonName": "Broadley Terrace, Marylebone",
    "lat": 51.524561,
    "lon": -0.165668
  },
  {
    "id": "BikePoints_760",
    "commonName": "Rossmore Road, Marylebone",
    "lat": 51.525269,
    "lon": -0.163795
  },
  {
    "id": "BikePoints_761",
    "commonName": "Humbolt Road, Fulham",
    "lat": 51.483217,
    "lon": -0.21186
  },
  {
    "id": "BikePoints_762",
    "commonName": "Storey's Gate, Westminster",
    "lat": 51.500703,
    "lon": -0.129698
  },
  {
    "id": "BikePoints_763",
    "commonName": "Mile End Park Leisure Centre, Mile End",
    "lat": 51.520597,
    "lon": -0.032566
  },
  {
    "id": "BikePoints_764",
    "commonName": "St. John's Road, Clapham Junction",
    "lat": 51.462392,
    "lon": -0.168292
  },
  {
    "id": "BikePoints_765",
    "commonName": "Ranelagh Gardens, Fulham",
    "lat": 51.467601,
    "lon": -0.206827
  },
  {
    "id": "BikePoints_766",
    "commonName": "Ram Street, Wandsworth",
    "lat": 51.457529,
    "lon": -0.192165
  },
  {
    "id": "BikePoints_767",
    "commonName": "Santos Road, Wandsworth",
    "lat": 51.457059,
    "lon": -0.200806
  },
  {
    "id": "BikePoints_768",
    "commonName": "Clapham Common North Side, Clapham Common",
    "lat": 51.461343,
    "lon": -0.159322
  },
  {
    "id": "BikePoints_769",
    "commonName": "Sandilands Road, Walham Green",
    "lat": 51.473611,
    "lon": -0.191803
  },
  {
    "id": "BikePoints_770",
    "commonName": "Gwendwr Road, West Kensington",
    "lat": 51.491026,
    "lon": -0.209121
  },
  {
    "id": "BikePoints_771",
    "commonName": "Rifle Place, Avondale",
    "lat": 51.509224,
    "lon": -0.216016
  },
  {
    "id": "BikePoints_772",
    "commonName": "Binfield Road, Stockwell",
    "lat": 51.472509,
    "lon": -0.122831
  },
  {
    "id": "BikePoints_773",
    "commonName": "Tallis Street, Temple",
    "lat": 51.511891,
    "lon": -0.107349
  },
  {
    "id": "BikePoints_774",
    "commonName": "Hurlingham Park, Parsons Green",
    "lat": 51.470131,
    "lon": -0.20464
  },
  {
    "id": "BikePoints_775",
    "commonName": "Little Brook Green, Brook Green",
    "lat": 51.496664,
    "lon": -0.223868
  },
  {
    "id": "BikePoints_776",
    "commonName": "Abyssinia Close, Clapham Junction",
    "lat": 51.460333,
    "lon": -0.167029
  },
  {
    "id": "BikePoints_777",
    "commonName": "Limburg Road, Clapham Junction",
    "lat": 51.461923,
    "lon": -0.165297
  },
  {
    "id": "BikePoints_779",
    "commonName": "Houndsditch, Aldgate",
    "lat": 51.514449,
    "lon": -0.077178
  },
  {
    "id": "BikePoints_780",
    "commonName": "Imperial Wharf Station, Sands End",
    "lat": 51.474665,
    "lon": -0.183165
  },
  {
    "id": "BikePoints_781",
    "commonName": "Victoria & Albert Museum, South Kensington",
    "lat": 51.495898,
    "lon": -0.173009
  },
  {
    "id": "BikePoints_782",
    "commonName": "Halford Road, West Kensington",
    "lat": 51.483911,
    "lon": -0.197609
  },
  {
    "id": "BikePoints_783",
    "commonName": "Monier Road, Hackney Wick",
    "lat": 51.540311,
    "lon": -0.02163
  },
  {
    "id": "BikePoints_784",
    "commonName": "East Village, Queen Elizabeth Olympic Park",
    "lat": 51.546326,
    "lon": -0.009935
  },
  {
    "id": "BikePoints_785",
    "commonName": "Aquatic Centre, Queen Elizabeth Olympic Park",
    "lat": 51.54094,
    "lon": -0.01051
  },
  {
    "id": "BikePoints_786",
    "commonName": "Lee Valley VeloPark, Queen Elizabeth Olympic Park",
    "lat": 51.549369,
    "lon": -0.015717
  },
  {
    "id": "BikePoints_787",
    "commonName": "Timber Lodge, Queen Elizabeth Olympic Park",
    "lat": 51.546805,
    "lon": -0.014691
  },
  {
    "id": "BikePoints_789",
    "commonName": "Podium, Queen Elizabeth Olympic Park",
    "lat": 51.538718,
    "lon": -0.011889
  },
  {
    "id": "BikePoints_790",
    "commonName": "Stratford Station, Stratford",
    "lat": 51.541793,
    "lon": -0.00481
  },
  {
    "id": "BikePoints_792",
    "commonName": "Blackfriars Road, Southwark",
    "lat": 51.505461,
    "lon": -0.10454
  },
  {
    "id": "BikePoints_793",
    "commonName": "Cromer Street, Bloomsbury",
    "lat": 51.528279,
    "lon": -0.119558
  },
  {
    "id": "BikePoints_794",
    "commonName": "Lansdowne Way Bus Garage, Stockwell",
    "lat": 51.474567,
    "lon": -0.12458
  },
  {
    "id": "BikePoints_795",
    "commonName": "Euston Square Gardens, Euston",
    "lat": 51.527068,
    "lon": -0.131861
  },
  {
    "id": "BikePoints_796",
    "commonName": "Coram Street, Bloomsbury",
    "lat": 51.524,
    "lon": -0.126409
  },
  {
    "id": "BikePoints_797",
    "commonName": "Ossulston Street, Somers Town",
    "lat": 51.5293,
    "lon": -0.128279
  },
  {
    "id": "BikePoints_798",
    "commonName": "Birkenhead Street, King's Cross",
    "lat": 51.530199,
    "lon": -0.122299
  },
  {
    "id": "BikePoints_799",
    "commonName": "Kings Gate House, Westminster",
    "lat": 51.497698,
    "lon": -0.137598
  },
  {
    "id": "BikePoints_800",
    "commonName": "Sopwith Way, Battersea Park",
    "lat": 51.481121,
    "lon": -0.149035
  },
  {
    "id": "BikePoints_801",
    "commonName": "Lavington Street, Bankside",
    "lat": 51.505224,
    "lon": -0.098031
  },
  {
    "id": "BikePoints_802",
    "commonName": "Albert Square, Stockwell",
    "lat": 51.47659,
    "lon": -0.118256
  },
  {
    "id": "BikePoints_803",
    "commonName": "Southwark Street, Bankside",
    "lat": 51.505409,
    "lon": -0.098341
  },
  {
    "id": "BikePoints_804",
    "commonName": "Good's Way, King's Cross",
    "lat": 51.534667,
    "lon": -0.125078
  },
  {
    "id": "BikePoints_805",
    "commonName": "Bevington Road, North Kensington",
    "lat": 51.520069,
    "lon": -0.206338
  },
  {
    "id": "BikePoints_806",
    "commonName": "Handyside Street, King's Cross",
    "lat": 51.53724,
    "lon": -0.124807
  },
  {
    "id": "BikePoints_807",
    "commonName": "Bevington Road West, North Kensington",
    "lat": 51.5212,
    "lon": -0.208888
  },
  {
    "id": "BikePoints_808",
    "commonName": "Stockwell Roundabout, Stockwell",
    "lat": 51.473486,
    "lon": -0.122555
  },
  {
    "id": "BikePoints_809",
    "commonName": "Lincoln's Inn Fields, Holborn",
    "lat": 51.516277,
    "lon": -0.118272
  },
  {
    "id": "BikePoints_810",
    "commonName": "Tate Modern, Bankside",
    "lat": 51.506725,
    "lon": -0.098807
  },
  {
    "id": "BikePoints_811",
    "commonName": "Westferry Circus, Canary Wharf",
    "lat": 51.505703,
    "lon": -0.027772
  },
  {
    "id": "BikePoints_812",
    "commonName": "Here East North, Queen Elizabeth Olympic Park",
    "lat": 51.548731,
    "lon": -0.022606
  },
  {
    "id": "BikePoints_813",
    "commonName": "New Spring Gardens Walk, Vauxhall",
    "lat": 51.487807,
    "lon": -0.122759
  },
  {
    "id": "BikePoints_814",
    "commonName": "Clapham Road, Lingham Street, Stockwell",
    "lat": 51.471433,
    "lon": -0.12367
  },
  {
    "id": "BikePoints_815",
    "commonName": "Lambeth Palace Road, Waterloo",
    "lat": 51.500089,
    "lon": -0.116628
  },
  {
    "id": "BikePoints_816",
    "commonName": "Here East South, Queen Elizabeth Olympic Park",
    "lat": 51.546532,
    "lon": -0.020597
  },
  {
    "id": "BikePoints_817",
    "commonName": "Riverlight South, Nine Elms",
    "lat": 51.481335,
    "lon": -0.138212
  },
  {
    "id": "BikePoints_818",
    "commonName": "Westminster Pier, Westminster",
    "lat": 51.501513,
    "lon": -0.123823
  },
  {
    "id": "BikePoints_819",
    "commonName": "Belvedere Road 2, South Bank",
    "lat": 51.50621,
    "lon": -0.114842
  },
  {
    "id": "BikePoints_820",
    "commonName": "Victory Place, Walworth",
    "lat": 51.492807,
    "lon": -0.091938
  },
  {
    "id": "BikePoints_821",
    "commonName": "Battersea Power Station, Battersea Park",
    "lat": 51.483507,
    "lon": -0.147714
  },
  {
    "id": "BikePoints_826",
    "commonName": "Allington Street, Victoria",
    "lat": 51.496863,
    "lon": -0.142943
  },
  {
    "id": "BikePoints_827",
    "commonName": "Cranmer Road, Stockwell",
    "lat": 51.479601,
    "lon": -0.111471
  },
  {
    "id": "BikePoints_828",
    "commonName": "Normandy Road, Stockwell",
    "lat": 51.473874,
    "lon": -0.11258
  },
  {
    "id": "BikePoints_829",
    "commonName": "Wynne Road, Stockwell",
    "lat": 51.469217,
    "lon": -0.112686
  },
  {
    "id": "BikePoints_830",
    "commonName": "Sidney Road, Stockwell",
    "lat": 51.469202,
    "lon": -0.119022
  },
  {
    "id": "BikePoints_831",
    "commonName": "St John's Crescent, Brixton",
    "lat": 51.466232,
    "lon": -0.113179
  },
  {
    "id": "BikePoints_833",
    "commonName": "Saltoun Road, Brixton",
    "lat": 51.460232,
    "lon": -0.115375
  },
  {
    "id": "BikePoints_834",
    "commonName": "Gas Holders, Battersea Park",
    "lat": 51.477966,
    "lon": -0.147857
  },
  {
    "id": "BikePoints_835",
    "commonName": "Farringdon Street, Holborn",
    "lat": 51.516785,
    "lon": -0.104947
  },
  {
    "id": "BikePoints_836",
    "commonName": "York Way, Kings Cross",
    "lat": 51.541596,
    "lon": -0.125441
  },
  {
    "id": "BikePoints_838",
    "commonName": "Fore Street Avenue, Guildhall",
    "lat": 51.518093,
    "lon": -0.091401
  },